{
"type": "FeatureCollection",
"name": "stores_location",
"crs": { "type": "name", "properties": { "name": "urn:ogc:def:crs:OGC:1.3:CRS84" } },
"features": [
{ "type": "Feature", "properties": { "store_id": "01bb056b-d7e6-4892-85a8-10dc984581f5", "NAME_1": "Hovedstaden", "NAME_2": "København", "DEGURBA_L1": "Urban Centre", "Tot_Pop": 686652.34316011705 }, "geometry": { "type": "Point", "coordinates": [ 12.5944266, 55.6980994 ] } },
{ "type": "Feature", "properties": { "store_id": "01ca7997-68bf-4ec9-ac2c-4a422731a728", "NAME_1": "Sjælland", "NAME_2": "Slagelse", "DEGURBA_L1": "Urban Cluster", "Tot_Pop": 78286.817517303105 }, "geometry": { "type": "Point", "coordinates": [ 11.3697052, 55.4103967 ] } },
{ "type": "Feature", "properties": { "store_id": "01dd4e7f-6fe3-4be8-867c-7f2b379b6d2d", "NAME_1": "Hovedstaden", "NAME_2": "Albertslund", "DEGURBA_L1": "Urban Centre", "Tot_Pop": 27939.994168974499 }, "geometry": { "type": "Point", "coordinates": [ 12.338831, 55.670637 ] } },
{ "type": "Feature", "properties": { "store_id": "02545e07-6585-43ff-bfbf-09a076fc64f0", "NAME_1": "Syddanmark", "NAME_2": "Odense", "DEGURBA_L1": "Urban Centre", "Tot_Pop": 215759.764306047 }, "geometry": { "type": "Point", "coordinates": [ 10.463071, 55.368874 ] } },
{ "type": "Feature", "properties": { "store_id": "02ac52b2-0d37-430e-8284-e950bdda7a0f", "NAME_1": "Hovedstaden", "NAME_2": "København", "DEGURBA_L1": "Urban Centre", "Tot_Pop": 686652.34316011705 }, "geometry": { "type": "Point", "coordinates": [ 12.556774, 55.685424 ] } },
{ "type": "Feature", "properties": { "store_id": "0304cd88-b6cc-4bec-b3b5-8f559668a9a0", "NAME_1": "Syddanmark", "NAME_2": "Sønderborg", "DEGURBA_L1": "Rural", "Tot_Pop": 73647.701219537397 }, "geometry": { "type": "Point", "coordinates": [ 9.742349, 55.05663 ] } },
{ "type": "Feature", "properties": { "store_id": "04163160-36b2-45b4-9100-10934c0d8599", "NAME_1": "Midtjylland", "NAME_2": "Randers", "DEGURBA_L1": "Urban Cluster", "Tot_Pop": 101324.798246135 }, "geometry": { "type": "Point", "coordinates": [ 10.045522, 56.536969 ] } },
{ "type": "Feature", "properties": { "store_id": "048d6fed-fc65-40af-ab98-1510c478046d", "NAME_1": "Hovedstaden", "NAME_2": "København", "DEGURBA_L1": "Urban Centre", "Tot_Pop": 686652.34316011705 }, "geometry": { "type": "Point", "coordinates": [ 12.5211394, 55.7014852 ] } },
{ "type": "Feature", "properties": { "store_id": "049a49b9-91e8-421d-bab0-d1a783d0f282", "NAME_1": "Syddanmark", "NAME_2": "Vejle", "DEGURBA_L1": "Urban Cluster", "Tot_Pop": 115660.634131574 }, "geometry": { "type": "Point", "coordinates": [ 9.651062, 55.64172 ] } },
{ "type": "Feature", "properties": { "store_id": "04c0ea22-a54b-4f14-a10f-e16eb2d68d38", "NAME_1": "Hovedstaden", "NAME_2": "Rudersdal", "DEGURBA_L1": "Urban Cluster", "Tot_Pop": 55795.335356919997 }, "geometry": { "type": "Point", "coordinates": [ 12.4318832, 55.8391441 ] } },
{ "type": "Feature", "properties": { "store_id": "05aa1221-c863-4c3d-b5e7-ec97e4f829b0", "NAME_1": "Hovedstaden", "NAME_2": "Halsnæs", "DEGURBA_L1": "Urban Cluster", "Tot_Pop": 31269.653585613902 }, "geometry": { "type": "Point", "coordinates": [ 12.071638, 55.924807 ] } },
{ "type": "Feature", "properties": { "store_id": "070f859f-36b2-488d-be58-1c97380560b1", "NAME_1": "Midtjylland", "NAME_2": "Horsens", "DEGURBA_L1": "Urban Cluster", "Tot_Pop": 87073.5036454441 }, "geometry": { "type": "Point", "coordinates": [ 9.91218, 55.87309 ] } },
{ "type": "Feature", "properties": { "store_id": "07631afc-e5b9-4561-a21f-1b72174aff50", "NAME_1": "Midtjylland", "NAME_2": "Horsens", "DEGURBA_L1": "Urban Cluster", "Tot_Pop": 87073.5036454441 }, "geometry": { "type": "Point", "coordinates": [ 9.844413, 55.860721 ] } },
{ "type": "Feature", "properties": { "store_id": "07a93352-73dc-4ce3-9de3-60496d7572c2", "NAME_1": "Hovedstaden", "NAME_2": "Tårnby", "DEGURBA_L1": "Urban Centre", "Tot_Pop": 42869.132494344703 }, "geometry": { "type": "Point", "coordinates": [ 12.6419956, 55.6366806 ] } },
{ "type": "Feature", "properties": { "store_id": "098ad29e-c92b-4ebb-a58a-f32a79af01ec", "NAME_1": "Nordjylland", "NAME_2": "Frederikshavn", "DEGURBA_L1": "Urban Cluster", "Tot_Pop": 57099.405619373203 }, "geometry": { "type": "Point", "coordinates": [ 10.49754, 57.326174 ] } },
{ "type": "Feature", "properties": { "store_id": "0b52d54b-66e1-4d8c-a4a4-e243b5120946", "NAME_1": "Hovedstaden", "NAME_2": "København", "DEGURBA_L1": "Urban Centre", "Tot_Pop": 686652.34316011705 }, "geometry": { "type": "Point", "coordinates": [ 12.493069, 55.693479 ] } },
{ "type": "Feature", "properties": { "store_id": "0b666c0a-9dce-448b-ad10-643c625a4aff", "NAME_1": "Nordjylland", "NAME_2": "Vesthimmerland", "DEGURBA_L1": "Rural", "Tot_Pop": 38195.676422243603 }, "geometry": { "type": "Point", "coordinates": [ 9.2653463, 56.9676605 ] } },
{ "type": "Feature", "properties": { "store_id": "0bb89c86-e33d-46d9-9587-85bb914fdcb4", "NAME_1": "Syddanmark", "NAME_2": "Haderslev", "DEGURBA_L1": "Rural", "Tot_Pop": 55871.994601730701 }, "geometry": { "type": "Point", "coordinates": [ 9.4848485, 55.246222 ] } },
{ "type": "Feature", "properties": { "store_id": "0cd7d167-adbf-4fa6-9396-7e779ccc264c", "NAME_1": "Hovedstaden", "NAME_2": "København", "DEGURBA_L1": "Urban Centre", "Tot_Pop": 686652.34316011705 }, "geometry": { "type": "Point", "coordinates": [ 12.55608, 55.66767 ] } },
{ "type": "Feature", "properties": { "store_id": "0d76aabc-0953-481a-a3e1-de02e7fd0913", "NAME_1": "Sjælland", "NAME_2": "Greve", "DEGURBA_L1": "Urban Centre", "Tot_Pop": 47857.392656001299 }, "geometry": { "type": "Point", "coordinates": [ 12.189128, 55.597128 ] } },
{ "type": "Feature", "properties": { "store_id": "0d9a0b11-9c4e-4f86-9d48-ddcecadbac18", "NAME_1": "Syddanmark", "NAME_2": "Esbjerg", "DEGURBA_L1": "Urban Cluster", "Tot_Pop": 117803.31425356401 }, "geometry": { "type": "Point", "coordinates": [ 8.409928, 55.494746 ] } },
{ "type": "Feature", "properties": { "store_id": "0dc55476-3591-4826-ba04-9d133ab96d61", "NAME_1": "Syddanmark", "NAME_2": "Vejle", "DEGURBA_L1": "Urban Cluster", "Tot_Pop": 115660.634131574 }, "geometry": { "type": "Point", "coordinates": [ 9.529264, 55.681512 ] } },
{ "type": "Feature", "properties": { "store_id": "0e336e9d-3362-4c30-9a09-50e5804b92fd", "NAME_1": "Midtjylland", "NAME_2": "Syddjurs", "DEGURBA_L1": "Rural", "Tot_Pop": 42794.5691067835 }, "geometry": { "type": "Point", "coordinates": [ 10.491886, 56.382152 ] } },
{ "type": "Feature", "properties": { "store_id": "0e4f3d57-0b2a-400b-bc77-d737763dd2c7", "NAME_1": "Sjælland", "NAME_2": "Slagelse", "DEGURBA_L1": "Urban Cluster", "Tot_Pop": 78286.817517303105 }, "geometry": { "type": "Point", "coordinates": [ 11.374522, 55.401404 ] } },
{ "type": "Feature", "properties": { "store_id": "0e6f15e1-797f-4933-8f60-352c9a789bc5", "NAME_1": "Hovedstaden", "NAME_2": "København", "DEGURBA_L1": "Urban Centre", "Tot_Pop": 686652.34316011705 }, "geometry": { "type": "Point", "coordinates": [ 12.568789, 55.676742 ] } },
{ "type": "Feature", "properties": { "store_id": "0e7e2810-a62d-4cae-ac39-7938188cc0d6", "NAME_1": "Hovedstaden", "NAME_2": "Lyngby-Taarbæk", "DEGURBA_L1": "Urban Centre", "Tot_Pop": 53995.2580948127 }, "geometry": { "type": "Point", "coordinates": [ 12.5041841408918, 55.794010503654491 ] } },
{ "type": "Feature", "properties": { "store_id": "0eb4352c-5ca4-4a09-a3f8-b77778bfa992", "NAME_1": "Hovedstaden", "NAME_2": "København", "DEGURBA_L1": "Urban Centre", "Tot_Pop": 686652.34316011705 }, "geometry": { "type": "Point", "coordinates": [ 12.52309, 55.70755 ] } },
{ "type": "Feature", "properties": { "store_id": "0ebcbc68-ebbc-4b8b-90b0-5c99bfb714cf", "NAME_1": "Syddanmark", "NAME_2": "Odense", "DEGURBA_L1": "Urban Centre", "Tot_Pop": 215759.764306047 }, "geometry": { "type": "Point", "coordinates": [ 10.3758, 55.36307 ] } },
{ "type": "Feature", "properties": { "store_id": "0eca728f-6b3a-4ae4-b036-942f62382eaf", "NAME_1": "Syddanmark", "NAME_2": "Svendborg", "DEGURBA_L1": "Urban Cluster", "Tot_Pop": 59798.355332877501 }, "geometry": { "type": "Point", "coordinates": [ 10.59573, 55.06251 ] } },
{ "type": "Feature", "properties": { "store_id": "0f182434-ec16-4134-ac04-3068f711843e", "NAME_1": "Sjælland", "NAME_2": "Sorø", "DEGURBA_L1": "Rural", "Tot_Pop": 32083.523996536998 }, "geometry": { "type": "Point", "coordinates": [ 11.562985, 55.414414 ] } },
{ "type": "Feature", "properties": { "store_id": "0f389643-3ec8-44e3-b8e1-e00b90688f78", "NAME_1": "Hovedstaden", "NAME_2": "Frederikssund", "DEGURBA_L1": "Urban Cluster", "Tot_Pop": 46058.403038235403 }, "geometry": { "type": "Point", "coordinates": [ 12.06261, 55.835952 ] } },
{ "type": "Feature", "properties": { "store_id": "0f9675e4-2376-4677-908f-c5e9b4cff981", "NAME_1": "Hovedstaden", "NAME_2": "Hørsholm", "DEGURBA_L1": "Urban Cluster", "Tot_Pop": 24193.974245670299 }, "geometry": { "type": "Point", "coordinates": [ 12.5027481, 55.9011051 ] } },
{ "type": "Feature", "properties": { "store_id": "0fdfea98-1888-4ce1-b19b-38e80cfb8bb5", "NAME_1": "Hovedstaden", "NAME_2": "Dragør", "DEGURBA_L1": "Urban Cluster", "Tot_Pop": 15191.698253327701 }, "geometry": { "type": "Point", "coordinates": [ 12.660147, 55.595409 ] } },
{ "type": "Feature", "properties": { "store_id": "100d809a-cec0-43b3-a9b4-83564cf71d35", "NAME_1": "Midtjylland", "NAME_2": "Århus", "DEGURBA_L1": "Urban Centre", "Tot_Pop": 360182.51957037201 }, "geometry": { "type": "Point", "coordinates": [ 10.19654, 56.15667 ] } },
{ "type": "Feature", "properties": { "store_id": "10a8f7be-b28b-4058-8bae-630b77ab140e", "NAME_1": "Sjælland", "NAME_2": "Ringsted", "DEGURBA_L1": "Urban Cluster", "Tot_Pop": 37825.699078452897 }, "geometry": { "type": "Point", "coordinates": [ 11.8040076, 55.4428463 ] } },
{ "type": "Feature", "properties": { "store_id": "10b63b2b-d1f2-4d8b-b7b7-1ade4f15dde9", "NAME_1": "Sjælland", "NAME_2": "Sorø", "DEGURBA_L1": "Rural", "Tot_Pop": 32083.523996536998 }, "geometry": { "type": "Point", "coordinates": [ 11.563362, 55.445589 ] } },
{ "type": "Feature", "properties": { "store_id": "118d8c5b-221f-47ff-96ea-39a5ee601290", "NAME_1": "Hovedstaden", "NAME_2": "Glostrup", "DEGURBA_L1": "Urban Centre", "Tot_Pop": 24229.0085287355 }, "geometry": { "type": "Point", "coordinates": [ 12.390561, 55.665792 ] } },
{ "type": "Feature", "properties": { "store_id": "11e81965-a0dd-4c42-81b8-20ba9a173ff1", "NAME_1": "Hovedstaden", "NAME_2": "Ballerup", "DEGURBA_L1": "Urban Centre", "Tot_Pop": 50078.195329927403 }, "geometry": { "type": "Point", "coordinates": [ 12.4120741, 55.7174414 ] } },
{ "type": "Feature", "properties": { "store_id": "12430e71-3120-40f0-96d0-e9f2d936ff87", "NAME_1": "Nordjylland", "NAME_2": "Brønderslev", "DEGURBA_L1": "Rural", "Tot_Pop": 36878.916883790604 }, "geometry": { "type": "Point", "coordinates": [ 10.145009, 57.167832 ] } },
{ "type": "Feature", "properties": { "store_id": "12480e12-729a-4324-9570-ea1904dc2304", "NAME_1": "Syddanmark", "NAME_2": "Esbjerg", "DEGURBA_L1": "Urban Cluster", "Tot_Pop": 117803.31425356401 }, "geometry": { "type": "Point", "coordinates": [ 8.4368388, 55.4751303 ] } },
{ "type": "Feature", "properties": { "store_id": "12ef5187-8280-4593-be23-87dadb4fa85f", "NAME_1": "Midtjylland", "NAME_2": "Silkeborg", "DEGURBA_L1": "Rural", "Tot_Pop": 96573.028842190193 }, "geometry": { "type": "Point", "coordinates": [ 9.509402, 56.187653 ] } },
{ "type": "Feature", "properties": { "store_id": "135e2d58-8ccc-46bf-b5ea-356a4e4eb772", "NAME_1": "Sjælland", "NAME_2": "Guldborgsund", "DEGURBA_L1": "Rural", "Tot_Pop": 59595.697996750801 }, "geometry": { "type": "Point", "coordinates": [ 11.730078, 54.669424 ] } },
{ "type": "Feature", "properties": { "store_id": "13a86696-4350-49cc-946d-c6dbda420cbc", "NAME_1": "Sjælland", "NAME_2": "Holbæk", "DEGURBA_L1": "Rural", "Tot_Pop": 74270.591435328606 }, "geometry": { "type": "Point", "coordinates": [ 11.4619859, 55.7221439 ] } },
{ "type": "Feature", "properties": { "store_id": "150f7992-2016-4075-a2f3-2a2f7c8ab7b2", "NAME_1": "Nordjylland", "NAME_2": "Aalborg", "DEGURBA_L1": "Urban Cluster", "Tot_Pop": 211021.679502101 }, "geometry": { "type": "Point", "coordinates": [ 10.001356, 57.025719 ] } },
{ "type": "Feature", "properties": { "store_id": "15c99a5c-e790-418b-9044-6f96ab17093f", "NAME_1": "Hovedstaden", "NAME_2": "Rødovre", "DEGURBA_L1": "Urban Centre", "Tot_Pop": 35635.922248856201 }, "geometry": { "type": "Point", "coordinates": [ 12.467466, 55.672371 ] } },
{ "type": "Feature", "properties": { "store_id": "162ceb7d-24c6-43c9-a826-942e78656a73", "NAME_1": "Hovedstaden", "NAME_2": "Tårnby", "DEGURBA_L1": "Urban Centre", "Tot_Pop": 42869.132494344703 }, "geometry": { "type": "Point", "coordinates": [ 12.617724, 55.637718 ] } },
{ "type": "Feature", "properties": { "store_id": "170b4f1a-a29c-4b07-a391-d7bb23062911", "NAME_1": "Midtjylland", "NAME_2": "Herning", "DEGURBA_L1": "Rural", "Tot_Pop": 94263.962241839006 }, "geometry": { "type": "Point", "coordinates": [ 9.004571, 56.153958 ] } },
{ "type": "Feature", "properties": { "store_id": "175b1624-98c7-43d2-a708-81bed89707ab", "NAME_1": "Hovedstaden", "NAME_2": "Helsingør", "DEGURBA_L1": "Urban Cluster", "Tot_Pop": 61761.973865623702 }, "geometry": { "type": "Point", "coordinates": [ 12.53935, 56.07522 ] } },
{ "type": "Feature", "properties": { "store_id": "18c42bd2-652c-459a-8530-b55b89f8f424", "NAME_1": "Sjælland", "NAME_2": "Lejre", "DEGURBA_L1": "Rural", "Tot_Pop": 28541.726621084599 }, "geometry": { "type": "Point", "coordinates": [ 11.861425, 55.59605 ] } },
{ "type": "Feature", "properties": { "store_id": "194e4354-e95a-4fbe-abde-3331b66cfda5", "NAME_1": "Sjælland", "NAME_2": "Slagelse", "DEGURBA_L1": "Urban Cluster", "Tot_Pop": 78286.817517303105 }, "geometry": { "type": "Point", "coordinates": [ 11.34219, 55.38984 ] } },
{ "type": "Feature", "properties": { "store_id": "1a8fa9ef-79c0-4b68-b5af-d19249cb6f4a", "NAME_1": "Syddanmark", "NAME_2": "Aabenraa", "DEGURBA_L1": "Rural", "Tot_Pop": 59056.2986655614 }, "geometry": { "type": "Point", "coordinates": [ 9.459909, 55.088911 ] } },
{ "type": "Feature", "properties": { "store_id": "1a909014-27d6-47c3-9e04-c5944897057d", "NAME_1": "Sjælland", "NAME_2": "Køge", "DEGURBA_L1": "Urban Cluster", "Tot_Pop": 59718.488650037398 }, "geometry": { "type": "Point", "coordinates": [ 12.1598749, 55.4366996 ] } },
{ "type": "Feature", "properties": { "store_id": "1b160fb3-dc13-4142-ad7f-ed0c943b33e7", "NAME_1": "Syddanmark", "NAME_2": "Odense", "DEGURBA_L1": "Urban Centre", "Tot_Pop": 215759.764306047 }, "geometry": { "type": "Point", "coordinates": [ 10.3930659, 55.4048011 ] } },
{ "type": "Feature", "properties": { "store_id": "1b60951d-d8a0-4316-8c2a-f409ce96118b", "NAME_1": "Sjælland", "NAME_2": "Roskilde", "DEGURBA_L1": "Urban Cluster", "Tot_Pop": 84542.122132885299 }, "geometry": { "type": "Point", "coordinates": [ 12.118617, 55.763314 ] } },
{ "type": "Feature", "properties": { "store_id": "1b675388-1c81-4c11-84c6-c9aaaa4d2402", "NAME_1": "Midtjylland", "NAME_2": "Århus", "DEGURBA_L1": "Urban Centre", "Tot_Pop": 360182.51957037201 }, "geometry": { "type": "Point", "coordinates": [ 10.193991, 56.146568 ] } },
{ "type": "Feature", "properties": { "store_id": "1b6a1a0d-de37-42dc-877f-921f079f8d82", "NAME_1": "Hovedstaden", "NAME_2": "København", "DEGURBA_L1": "Urban Centre", "Tot_Pop": 686652.34316011705 }, "geometry": { "type": "Point", "coordinates": [ 12.4694939, 55.699917 ] } },
{ "type": "Feature", "properties": { "store_id": "1b73e2ae-735a-4bcd-bb20-1212106c4180", "NAME_1": "Sjælland", "NAME_2": "Næstved", "DEGURBA_L1": "Urban Cluster", "Tot_Pop": 85502.469069857703 }, "geometry": { "type": "Point", "coordinates": [ 11.545695, 55.301811 ] } },
{ "type": "Feature", "properties": { "store_id": "1b948f26-d987-4547-83ab-274d55f1f330", "NAME_1": "Sjælland", "NAME_2": "Kalundborg", "DEGURBA_L1": "Rural", "Tot_Pop": 47752.588766562898 }, "geometry": { "type": "Point", "coordinates": [ 11.2909469, 55.504249 ] } },
{ "type": "Feature", "properties": { "store_id": "1c7a633b-05dd-40d4-90d7-4cb8deb37db7", "NAME_1": "Midtjylland", "NAME_2": "Århus", "DEGURBA_L1": "Urban Centre", "Tot_Pop": 360182.51957037201 }, "geometry": { "type": "Point", "coordinates": [ 10.097657, 56.153931 ] } },
{ "type": "Feature", "properties": { "store_id": "1c889a25-0c79-4b60-ac8e-d3fc0dcbe8a4", "NAME_1": "Midtjylland", "NAME_2": "Århus", "DEGURBA_L1": "Urban Centre", "Tot_Pop": 360182.51957037201 }, "geometry": { "type": "Point", "coordinates": [ 10.176311, 56.130152 ] } },
{ "type": "Feature", "properties": { "store_id": "1c9d1304-26c5-4f29-903c-81912161df99", "NAME_1": "Hovedstaden", "NAME_2": "København", "DEGURBA_L1": "Urban Centre", "Tot_Pop": 686652.34316011705 }, "geometry": { "type": "Point", "coordinates": [ 12.557105, 55.708417 ] } },
{ "type": "Feature", "properties": { "store_id": "1ce49718-7226-4002-9006-4e1350220ef9", "NAME_1": "Hovedstaden", "NAME_2": "Frederiksberg", "DEGURBA_L1": "Urban Centre", "Tot_Pop": 118648.281450514 }, "geometry": { "type": "Point", "coordinates": [ 12.502756, 55.678799 ] } },
{ "type": "Feature", "properties": { "store_id": "1d0ee0d4-9b92-40b6-b799-6936b8742828", "NAME_1": "Midtjylland", "NAME_2": "Århus", "DEGURBA_L1": "Urban Centre", "Tot_Pop": 360182.51957037201 }, "geometry": { "type": "Point", "coordinates": [ 10.166711, 56.150292 ] } },
{ "type": "Feature", "properties": { "store_id": "1d692e16-0ff9-4b3f-938e-1a755682fbcd", "NAME_1": "Hovedstaden", "NAME_2": "København", "DEGURBA_L1": "Urban Centre", "Tot_Pop": 686652.34316011705 }, "geometry": { "type": "Point", "coordinates": [ 12.598605, 55.6646182 ] } },
{ "type": "Feature", "properties": { "store_id": "1deff915-4d8f-4505-97b8-d42275adedba", "NAME_1": "Hovedstaden", "NAME_2": "Frederikssund", "DEGURBA_L1": "Urban Cluster", "Tot_Pop": 46058.403038235403 }, "geometry": { "type": "Point", "coordinates": [ 12.175126, 55.843156 ] } },
{ "type": "Feature", "properties": { "store_id": "1ea61b5f-aa8c-432c-8cb8-b63df6a72fc9", "NAME_1": "Hovedstaden", "NAME_2": "Egedal", "DEGURBA_L1": "Urban Cluster", "Tot_Pop": 47461.702593235503 }, "geometry": { "type": "Point", "coordinates": [ 12.190844, 55.767797 ] } },
{ "type": "Feature", "properties": { "store_id": "1f0fff4b-2066-42ff-bb96-1fa084f37a73", "NAME_1": "Nordjylland", "NAME_2": "Thisted", "DEGURBA_L1": "Rural", "Tot_Pop": 43309.453882748603 }, "geometry": { "type": "Point", "coordinates": [ 8.6930596, 56.9520686 ] } },
{ "type": "Feature", "properties": { "store_id": "1f6d72bb-5f31-4720-9372-84977fbc3932", "NAME_1": "Midtjylland", "NAME_2": "Favrskov", "DEGURBA_L1": "Urban Cluster", "Tot_Pop": 54939.914715578401 }, "geometry": { "type": "Point", "coordinates": [ 10.062048, 56.265407 ] } },
{ "type": "Feature", "properties": { "store_id": "1fe45d71-61af-4173-80c1-59cae1a28825", "NAME_1": "Midtjylland", "NAME_2": "Silkeborg", "DEGURBA_L1": "Rural", "Tot_Pop": 96573.028842190193 }, "geometry": { "type": "Point", "coordinates": [ 9.415194, 56.286544 ] } },
{ "type": "Feature", "properties": { "store_id": "2051b4e8-6c75-47e3-b569-019363bbf623", "NAME_1": "Syddanmark", "NAME_2": "Kolding", "DEGURBA_L1": "Urban Cluster", "Tot_Pop": 97809.466360831197 }, "geometry": { "type": "Point", "coordinates": [ 9.469351, 55.475203 ] } },
{ "type": "Feature", "properties": { "store_id": "205701b1-38b2-4bfa-93e9-374b1ccb01c3", "NAME_1": "Hovedstaden", "NAME_2": "Gribskov", "DEGURBA_L1": "Urban Cluster", "Tot_Pop": 41132.751618633498 }, "geometry": { "type": "Point", "coordinates": [ 12.1404871, 56.0669966 ] } },
{ "type": "Feature", "properties": { "store_id": "21a20d8f-bbe4-44d2-816f-97f90b709b86", "NAME_1": "Syddanmark", "NAME_2": "Vejle", "DEGURBA_L1": "Urban Cluster", "Tot_Pop": 115660.634131574 }, "geometry": { "type": "Point", "coordinates": [ 9.2330335, 55.8449529 ] } },
{ "type": "Feature", "properties": { "store_id": "2453088a-9203-4176-8cd7-84a8365b7869", "NAME_1": "Hovedstaden", "NAME_2": "Ballerup", "DEGURBA_L1": "Urban Centre", "Tot_Pop": 50078.195329927403 }, "geometry": { "type": "Point", "coordinates": [ 12.3573083, 55.7183297 ] } },
{ "type": "Feature", "properties": { "store_id": "24b395f7-c4af-4f27-963a-36a798c779f0", "NAME_1": "Hovedstaden", "NAME_2": "Frederiksberg", "DEGURBA_L1": "Urban Centre", "Tot_Pop": 118648.281450514 }, "geometry": { "type": "Point", "coordinates": [ 12.5269665, 55.6881177 ] } },
{ "type": "Feature", "properties": { "store_id": "2588314b-a1ce-478b-9b96-2c17225f784f", "NAME_1": "Hovedstaden", "NAME_2": "Lyngby-Taarbæk", "DEGURBA_L1": "Urban Centre", "Tot_Pop": 53995.2580948127 }, "geometry": { "type": "Point", "coordinates": [ 12.5009548, 55.7695072 ] } },
{ "type": "Feature", "properties": { "store_id": "2588c255-65f6-41d0-afe9-251df11da414", "NAME_1": "Hovedstaden", "NAME_2": "Rødovre", "DEGURBA_L1": "Urban Centre", "Tot_Pop": 35635.922248856201 }, "geometry": { "type": "Point", "coordinates": [ 12.43455, 55.6758 ] } },
{ "type": "Feature", "properties": { "store_id": "261fcf18-cc56-497d-a1d9-fab4dd3c743b", "NAME_1": "Hovedstaden", "NAME_2": "København", "DEGURBA_L1": "Urban Centre", "Tot_Pop": 686652.34316011705 }, "geometry": { "type": "Point", "coordinates": [ 12.551225, 55.649699 ] } },
{ "type": "Feature", "properties": { "store_id": "270e2835-85f7-4452-8bc3-6f936ec2794e", "NAME_1": "Syddanmark", "NAME_2": "Kolding", "DEGURBA_L1": "Urban Cluster", "Tot_Pop": 97809.466360831197 }, "geometry": { "type": "Point", "coordinates": [ 9.479136, 55.490208 ] } },
{ "type": "Feature", "properties": { "store_id": "2784b144-8dc4-4963-8fa0-b6b564467544", "NAME_1": "Midtjylland", "NAME_2": "Viborg", "DEGURBA_L1": "Rural", "Tot_Pop": 99973.806205928806 }, "geometry": { "type": "Point", "coordinates": [ 9.655579, 56.376197 ] } },
{ "type": "Feature", "properties": { "store_id": "27a57039-df0e-4fea-a62b-c5ea34ffd9db", "NAME_1": "Hovedstaden", "NAME_2": "Gribskov", "DEGURBA_L1": "Urban Cluster", "Tot_Pop": 41132.751618633498 }, "geometry": { "type": "Point", "coordinates": [ 12.115589, 56.015876 ] } },
{ "type": "Feature", "properties": { "store_id": "287be12a-741b-407f-ba4a-0a2c1238ec50", "NAME_1": "Nordjylland", "NAME_2": "Aalborg", "DEGURBA_L1": "Urban Cluster", "Tot_Pop": 211021.679502101 }, "geometry": { "type": "Point", "coordinates": [ 9.926914, 57.0069 ] } },
{ "type": "Feature", "properties": { "store_id": "28cd4569-01e6-4c5b-a612-1af1e588650e", "NAME_1": "Midtjylland", "NAME_2": "Hedensted", "DEGURBA_L1": "Rural", "Tot_Pop": 50770.584517428797 }, "geometry": { "type": "Point", "coordinates": [ 9.4759898, 55.8489919 ] } },
{ "type": "Feature", "properties": { "store_id": "28fcd8c0-ac7d-497a-82b0-1aca9651fa18", "NAME_1": "Midtjylland", "NAME_2": "Syddjurs", "DEGURBA_L1": "Rural", "Tot_Pop": 42794.5691067835 }, "geometry": { "type": "Point", "coordinates": [ 10.474271, 56.300287 ] } },
{ "type": "Feature", "properties": { "store_id": "299ec483-f3d3-4790-831c-377a9c56a219", "NAME_1": "Syddanmark", "NAME_2": "Faaborg-Midtfyn", "DEGURBA_L1": "Rural", "Tot_Pop": 53629.613388948601 }, "geometry": { "type": "Point", "coordinates": [ 10.253095, 55.093749 ] } },
{ "type": "Feature", "properties": { "store_id": "2b07278a-fc26-463b-ad5c-49800be06e85", "NAME_1": "Sjælland", "NAME_2": "Greve", "DEGURBA_L1": "Urban Centre", "Tot_Pop": 47857.392656001299 }, "geometry": { "type": "Point", "coordinates": [ 12.253331, 55.567824 ] } },
{ "type": "Feature", "properties": { "store_id": "2c08133b-b956-4c51-b2ef-6e4e4bce865a", "NAME_1": "Hovedstaden", "NAME_2": "Rudersdal", "DEGURBA_L1": "Urban Cluster", "Tot_Pop": 55795.335356919997 }, "geometry": { "type": "Point", "coordinates": [ 12.5384154, 55.820319 ] } },
{ "type": "Feature", "properties": { "store_id": "2d2abc82-d89b-48ea-a29c-37c27aa43a0b", "NAME_1": "Hovedstaden", "NAME_2": "Hvidovre", "DEGURBA_L1": "Urban Centre", "Tot_Pop": 50392.302962145099 }, "geometry": { "type": "Point", "coordinates": [ 12.4595195, 55.6455228 ] } },
{ "type": "Feature", "properties": { "store_id": "2d65c541-74d5-4ca3-bb20-9d0dda55b3bd", "NAME_1": "Syddanmark", "NAME_2": "Varde", "DEGURBA_L1": "Rural", "Tot_Pop": 52032.89061676 }, "geometry": { "type": "Point", "coordinates": [ 8.13968, 55.55656 ] } },
{ "type": "Feature", "properties": { "store_id": "2da2b92a-25c8-48cf-a4a1-7c56b4469a02", "NAME_1": "Nordjylland", "NAME_2": "Aalborg", "DEGURBA_L1": "Urban Cluster", "Tot_Pop": 211021.679502101 }, "geometry": { "type": "Point", "coordinates": [ 9.87482, 57.02314 ] } },
{ "type": "Feature", "properties": { "store_id": "2e250028-4bcf-4fc4-9618-0dcb45b47c2e", "NAME_1": "Sjælland", "NAME_2": "Holbæk", "DEGURBA_L1": "Rural", "Tot_Pop": 74270.591435328606 }, "geometry": { "type": "Point", "coordinates": [ 11.7453341, 55.7133303 ] } },
{ "type": "Feature", "properties": { "store_id": "2e7e4a1f-352b-4fdc-b4e4-8f4384e5a5d7", "NAME_1": "Hovedstaden", "NAME_2": "København", "DEGURBA_L1": "Urban Centre", "Tot_Pop": 686652.34316011705 }, "geometry": { "type": "Point", "coordinates": [ 12.602072, 55.662618 ] } },
{ "type": "Feature", "properties": { "store_id": "2f69ff57-66f6-4fa8-bf11-6a9e4db571a5", "NAME_1": "Hovedstaden", "NAME_2": "HøjeTaastrup", "DEGURBA_L1": "Urban Cluster", "Tot_Pop": 52115.0201965671 }, "geometry": { "type": "Point", "coordinates": [ 12.280815, 55.653762 ] } },
{ "type": "Feature", "properties": { "store_id": "3014420d-914a-4f3f-b4d7-d3a41112aa9c", "NAME_1": "Sjælland", "NAME_2": "Greve", "DEGURBA_L1": "Urban Centre", "Tot_Pop": 47857.392656001299 }, "geometry": { "type": "Point", "coordinates": [ 12.3166582, 55.5943962 ] } },
{ "type": "Feature", "properties": { "store_id": "30b85210-354e-4eb5-927b-70926adbdb49", "NAME_1": "Hovedstaden", "NAME_2": "Gladsaxe", "DEGURBA_L1": "Urban Centre", "Tot_Pop": 72843.051801036097 }, "geometry": { "type": "Point", "coordinates": [ 12.5157328, 55.7334026 ] } },
{ "type": "Feature", "properties": { "store_id": "30c80533-e12f-493a-800e-254e79e97e9d", "NAME_1": "Hovedstaden", "NAME_2": "Gentofte", "DEGURBA_L1": "Urban Centre", "Tot_Pop": 80901.086500708203 }, "geometry": { "type": "Point", "coordinates": [ 12.520115, 55.737995 ] } },
{ "type": "Feature", "properties": { "store_id": "31771d71-6522-4443-9cff-1807f5d155bc", "NAME_1": "Sjælland", "NAME_2": "Køge", "DEGURBA_L1": "Urban Cluster", "Tot_Pop": 59718.488650037398 }, "geometry": { "type": "Point", "coordinates": [ 12.174005, 55.479553 ] } },
{ "type": "Feature", "properties": { "store_id": "3195edfc-e035-43e6-babf-df8419b85749", "NAME_1": "Midtjylland", "NAME_2": "Horsens", "DEGURBA_L1": "Urban Cluster", "Tot_Pop": 87073.5036454441 }, "geometry": { "type": "Point", "coordinates": [ 9.812184, 55.836154 ] } },
{ "type": "Feature", "properties": { "store_id": "31e281af-cbf0-4131-8957-843997b8b15f", "NAME_1": "Hovedstaden", "NAME_2": "Gentofte", "DEGURBA_L1": "Urban Centre", "Tot_Pop": 80901.086500708203 }, "geometry": { "type": "Point", "coordinates": [ 12.5188689, 55.7490497 ] } },
{ "type": "Feature", "properties": { "store_id": "32765af8-0caa-4403-8d1c-594395216b89", "NAME_1": "Midtjylland", "NAME_2": "Århus", "DEGURBA_L1": "Urban Centre", "Tot_Pop": 360182.51957037201 }, "geometry": { "type": "Point", "coordinates": [ 10.238141, 56.228794 ] } },
{ "type": "Feature", "properties": { "store_id": "32bb4a1e-a546-4ab1-b803-4cd95c2fe801", "NAME_1": "Sjælland", "NAME_2": "Holbæk", "DEGURBA_L1": "Rural", "Tot_Pop": 74270.591435328606 }, "geometry": { "type": "Point", "coordinates": [ 11.71261, 55.70706 ] } },
{ "type": "Feature", "properties": { "store_id": "338ad4f9-6432-40d9-93eb-e813f7d580e3", "NAME_1": "Syddanmark", "NAME_2": "Odense", "DEGURBA_L1": "Urban Centre", "Tot_Pop": 215759.764306047 }, "geometry": { "type": "Point", "coordinates": [ 10.340028, 55.398413 ] } },
{ "type": "Feature", "properties": { "store_id": "33e116df-7c1f-475a-8df3-e289c6c0c80f", "NAME_1": "Syddanmark", "NAME_2": "Assens", "DEGURBA_L1": "Rural", "Tot_Pop": 42736.9105521405 }, "geometry": { "type": "Point", "coordinates": [ 10.048097, 55.377419 ] } },
{ "type": "Feature", "properties": { "store_id": "34668433-3562-4edb-a42e-d10776c65346", "NAME_1": "Sjælland", "NAME_2": "Lolland", "DEGURBA_L1": "Rural", "Tot_Pop": 39340.385917658998 }, "geometry": { "type": "Point", "coordinates": [ 11.505551, 54.774207 ] } },
{ "type": "Feature", "properties": { "store_id": "34e76e73-5925-4d78-b994-7c1f42e749a4", "NAME_1": "Sjælland", "NAME_2": "Slagelse", "DEGURBA_L1": "Urban Cluster", "Tot_Pop": 78286.817517303105 }, "geometry": { "type": "Point", "coordinates": [ 11.3352619, 55.3945017 ] } },
{ "type": "Feature", "properties": { "store_id": "354e5a9a-4d6f-4b24-a36d-e782728736bc", "NAME_1": "Syddanmark", "NAME_2": "Vejen", "DEGURBA_L1": "Rural", "Tot_Pop": 46718.721771667202 }, "geometry": { "type": "Point", "coordinates": [ 9.145421, 55.483435 ] } },
{ "type": "Feature", "properties": { "store_id": "357ed080-483f-4ed3-a175-8144e0067ef2", "NAME_1": "Syddanmark", "NAME_2": "Odense", "DEGURBA_L1": "Urban Centre", "Tot_Pop": 215759.764306047 }, "geometry": { "type": "Point", "coordinates": [ 10.3700139, 55.373585 ] } },
{ "type": "Feature", "properties": { "store_id": "35b67d0f-08e8-434f-86aa-a04ef4917364", "NAME_1": "Syddanmark", "NAME_2": "Kolding", "DEGURBA_L1": "Urban Cluster", "Tot_Pop": 97809.466360831197 }, "geometry": { "type": "Point", "coordinates": [ 9.502451, 55.501814 ] } },
{ "type": "Feature", "properties": { "store_id": "35d40e97-e621-4b32-997d-9311f4184ad1", "NAME_1": "Sjælland", "NAME_2": "Køge", "DEGURBA_L1": "Urban Cluster", "Tot_Pop": 59718.488650037398 }, "geometry": { "type": "Point", "coordinates": [ 11.9769616, 55.4994426 ] } },
{ "type": "Feature", "properties": { "store_id": "367a22b8-0ff4-4686-99c8-f238e4fb01b2", "NAME_1": "Nordjylland", "NAME_2": "Aalborg", "DEGURBA_L1": "Urban Cluster", "Tot_Pop": 211021.679502101 }, "geometry": { "type": "Point", "coordinates": [ 9.9163612, 57.0506702 ] } },
{ "type": "Feature", "properties": { "store_id": "3760433c-e3e1-4991-b8ed-c81012b51fd0", "NAME_1": "Sjælland", "NAME_2": "Køge", "DEGURBA_L1": "Urban Cluster", "Tot_Pop": 59718.488650037398 }, "geometry": { "type": "Point", "coordinates": [ 12.1856379, 55.4519722 ] } },
{ "type": "Feature", "properties": { "store_id": "37897bf3-e2bc-48bd-8dc4-34c8104d0d97", "NAME_1": "Hovedstaden", "NAME_2": "København", "DEGURBA_L1": "Urban Centre", "Tot_Pop": 686652.34316011705 }, "geometry": { "type": "Point", "coordinates": [ 12.589316, 55.639373 ] } },
{ "type": "Feature", "properties": { "store_id": "379a8993-bcbe-40c2-ab6c-41abb7008569", "NAME_1": "Hovedstaden", "NAME_2": "København", "DEGURBA_L1": "Urban Centre", "Tot_Pop": 686652.34316011705 }, "geometry": { "type": "Point", "coordinates": [ 12.514638, 55.707922 ] } },
{ "type": "Feature", "properties": { "store_id": "37e57566-70c1-4d2c-a2b0-ef15d3614b38", "NAME_1": "Syddanmark", "NAME_2": "Nordfyns", "DEGURBA_L1": "Rural", "Tot_Pop": 31059.328393342199 }, "geometry": { "type": "Point", "coordinates": [ 10.093714, 55.5635797 ] } },
{ "type": "Feature", "properties": { "store_id": "37e65637-451c-4dfd-a778-eb86a9cdc216", "NAME_1": "Hovedstaden", "NAME_2": "København", "DEGURBA_L1": "Urban Centre", "Tot_Pop": 686652.34316011705 }, "geometry": { "type": "Point", "coordinates": [ 12.63609, 55.64607 ] } },
{ "type": "Feature", "properties": { "store_id": "37e7e938-867a-425a-9de4-450f0b636dba", "NAME_1": "Midtjylland", "NAME_2": "Århus", "DEGURBA_L1": "Urban Centre", "Tot_Pop": 360182.51957037201 }, "geometry": { "type": "Point", "coordinates": [ 10.184815, 56.029241 ] } },
{ "type": "Feature", "properties": { "store_id": "38046af1-1a96-46a0-b239-bb0284c28efc", "NAME_1": "Midtjylland", "NAME_2": "Århus", "DEGURBA_L1": "Urban Centre", "Tot_Pop": 360182.51957037201 }, "geometry": { "type": "Point", "coordinates": [ 10.24702, 56.20269 ] } },
{ "type": "Feature", "properties": { "store_id": "393a3e85-dfec-4800-a666-f830532c7b18", "NAME_1": "Midtjylland", "NAME_2": "Silkeborg", "DEGURBA_L1": "Rural", "Tot_Pop": 96573.028842190193 }, "geometry": { "type": "Point", "coordinates": [ 9.551306898574, 56.179330256542002 ] } },
{ "type": "Feature", "properties": { "store_id": "39c7b39f-1f55-42b4-9084-e9576142c2a3", "NAME_1": "Nordjylland", "NAME_2": "Morsø", "DEGURBA_L1": "Rural", "Tot_Pop": 19830.439292943302 }, "geometry": { "type": "Point", "coordinates": [ 8.854379, 56.793553 ] } },
{ "type": "Feature", "properties": { "store_id": "3a92a1c7-823b-4716-a21a-675b88186bca", "NAME_1": "Hovedstaden", "NAME_2": "København", "DEGURBA_L1": "Urban Centre", "Tot_Pop": 686652.34316011705 }, "geometry": { "type": "Point", "coordinates": [ 12.513826, 55.692238 ] } },
{ "type": "Feature", "properties": { "store_id": "3aba940c-f246-400d-a969-c28f33ea7e35", "NAME_1": "Syddanmark", "NAME_2": "Esbjerg", "DEGURBA_L1": "Urban Cluster", "Tot_Pop": 117803.31425356401 }, "geometry": { "type": "Point", "coordinates": [ 8.493187, 55.479691 ] } },
{ "type": "Feature", "properties": { "store_id": "3bb5b0b9-3ebc-44b0-9189-c99b3560b3ee", "NAME_1": "Sjælland", "NAME_2": "Holbæk", "DEGURBA_L1": "Rural", "Tot_Pop": 74270.591435328606 }, "geometry": { "type": "Point", "coordinates": [ 11.71609, 55.715291 ] } },
{ "type": "Feature", "properties": { "store_id": "3bffe23b-1d95-4370-a03a-65fbf55ce77a", "NAME_1": "Hovedstaden", "NAME_2": "København", "DEGURBA_L1": "Urban Centre", "Tot_Pop": 686652.34316011705 }, "geometry": { "type": "Point", "coordinates": [ 12.492076, 55.705687 ] } },
{ "type": "Feature", "properties": { "store_id": "3c49bbee-03a0-4966-b431-ea65d0e9992d", "NAME_1": "Hovedstaden", "NAME_2": "Brøndby", "DEGURBA_L1": "Urban Centre", "Tot_Pop": 32748.527406021702 }, "geometry": { "type": "Point", "coordinates": [ 12.394998, 55.654944 ] } },
{ "type": "Feature", "properties": { "store_id": "3d41657a-5e19-4cc4-9ab1-e783b07d2607", "NAME_1": "Midtjylland", "NAME_2": "Horsens", "DEGURBA_L1": "Urban Cluster", "Tot_Pop": 87073.5036454441 }, "geometry": { "type": "Point", "coordinates": [ 9.845866, 55.858942 ] } },
{ "type": "Feature", "properties": { "store_id": "3da7639a-8f73-4e41-ac5f-f5ebe5700adf", "NAME_1": "Syddanmark", "NAME_2": "Fredericia", "DEGURBA_L1": "Urban Cluster", "Tot_Pop": 51984.677546901301 }, "geometry": { "type": "Point", "coordinates": [ 9.709271, 55.569604 ] } },
{ "type": "Feature", "properties": { "store_id": "3e029c56-e57a-47d2-b054-eb14292b4665", "NAME_1": "Hovedstaden", "NAME_2": "Gentofte", "DEGURBA_L1": "Urban Centre", "Tot_Pop": 80901.086500708203 }, "geometry": { "type": "Point", "coordinates": [ 12.549852, 55.727273 ] } },
{ "type": "Feature", "properties": { "store_id": "3e1414f5-45f4-45cc-8c4f-80b49c6386e1", "NAME_1": "Hovedstaden", "NAME_2": "København", "DEGURBA_L1": "Urban Centre", "Tot_Pop": 686652.34316011705 }, "geometry": { "type": "Point", "coordinates": [ 12.575869, 55.709122 ] } },
{ "type": "Feature", "properties": { "store_id": "3e259e05-fc26-424a-a503-5f06f357d169", "NAME_1": "Syddanmark", "NAME_2": "Nordfyns", "DEGURBA_L1": "Rural", "Tot_Pop": 31059.328393342199 }, "geometry": { "type": "Point", "coordinates": [ 10.2449328, 55.4843497 ] } },
{ "type": "Feature", "properties": { "store_id": "3ee033f5-ad3a-49ef-b570-26cef676b821", "NAME_1": "Midtjylland", "NAME_2": "Samsø", "DEGURBA_L1": "Rural", "Tot_Pop": 3428.9927740441599 }, "geometry": { "type": "Point", "coordinates": [ 10.594392, 55.828248 ] } },
{ "type": "Feature", "properties": { "store_id": "3ef9a93f-fe45-42b2-885e-69165ce44a03", "NAME_1": "Hovedstaden", "NAME_2": "Lyngby-Taarbæk", "DEGURBA_L1": "Urban Centre", "Tot_Pop": 53995.2580948127 }, "geometry": { "type": "Point", "coordinates": [ 12.482526, 55.780992 ] } },
{ "type": "Feature", "properties": { "store_id": "3f9a1a12-c210-4e7f-876c-f78e15cc9105", "NAME_1": "Syddanmark", "NAME_2": "Haderslev", "DEGURBA_L1": "Rural", "Tot_Pop": 55871.994601730701 }, "geometry": { "type": "Point", "coordinates": [ 9.30398, 55.245809 ] } },
{ "type": "Feature", "properties": { "store_id": "40388fb2-588c-4166-8517-986c75372c95", "NAME_1": "Sjælland", "NAME_2": "Vordingborg", "DEGURBA_L1": "Rural", "Tot_Pop": 44492.0585025896 }, "geometry": { "type": "Point", "coordinates": [ 11.9109602, 55.0110173 ] } },
{ "type": "Feature", "properties": { "store_id": "41c97a86-9e30-4ab0-b9dc-637f63053e6a", "NAME_1": "Midtjylland", "NAME_2": "Århus", "DEGURBA_L1": "Urban Centre", "Tot_Pop": 360182.51957037201 }, "geometry": { "type": "Point", "coordinates": [ 10.10231, 56.1068 ] } },
{ "type": "Feature", "properties": { "store_id": "42e25b24-1fda-4d28-82f8-5ceb532bda8e", "NAME_1": "Hovedstaden", "NAME_2": "Ballerup", "DEGURBA_L1": "Urban Centre", "Tot_Pop": 50078.195329927403 }, "geometry": { "type": "Point", "coordinates": [ 12.400664, 55.721141 ] } },
{ "type": "Feature", "properties": { "store_id": "43217073-2a0d-4a79-8246-8c31dbb3ed1d", "NAME_1": "Midtjylland", "NAME_2": "Randers", "DEGURBA_L1": "Urban Cluster", "Tot_Pop": 101324.798246135 }, "geometry": { "type": "Point", "coordinates": [ 9.995303, 56.466702 ] } },
{ "type": "Feature", "properties": { "store_id": "43c0c172-437a-465f-8b17-c5adf3c2b93b", "NAME_1": "Nordjylland", "NAME_2": "Aalborg", "DEGURBA_L1": "Urban Cluster", "Tot_Pop": 211021.679502101 }, "geometry": { "type": "Point", "coordinates": [ 9.952968, 57.037429 ] } },
{ "type": "Feature", "properties": { "store_id": "43c8b72b-fc30-4030-b0eb-05ce6e74e14c", "NAME_1": "Hovedstaden", "NAME_2": "København", "DEGURBA_L1": "Urban Centre", "Tot_Pop": 686652.34316011705 }, "geometry": { "type": "Point", "coordinates": [ 12.550759, 55.685956 ] } },
{ "type": "Feature", "properties": { "store_id": "43e7cc35-a9e8-44c6-b136-8a2beb2575cd", "NAME_1": "Hovedstaden", "NAME_2": "Hvidovre", "DEGURBA_L1": "Urban Centre", "Tot_Pop": 50392.302962145099 }, "geometry": { "type": "Point", "coordinates": [ 12.48125, 55.62803 ] } },
{ "type": "Feature", "properties": { "store_id": "43fe0899-d4e6-40a4-b9ac-d32c6ae15f8e", "NAME_1": "Midtjylland", "NAME_2": "Favrskov", "DEGURBA_L1": "Urban Cluster", "Tot_Pop": 54939.914715578401 }, "geometry": { "type": "Point", "coordinates": [ 10.04835, 56.32844 ] } },
{ "type": "Feature", "properties": { "store_id": "44707579-2cac-4153-a297-a45332d1dc50", "NAME_1": "Hovedstaden", "NAME_2": "Rudersdal", "DEGURBA_L1": "Urban Cluster", "Tot_Pop": 55795.335356919997 }, "geometry": { "type": "Point", "coordinates": [ 12.5660346, 55.8536264 ] } },
{ "type": "Feature", "properties": { "store_id": "448f9506-c0d6-4c43-a4d2-96f7ac9e39a6", "NAME_1": "Syddanmark", "NAME_2": "Esbjerg", "DEGURBA_L1": "Urban Cluster", "Tot_Pop": 117803.31425356401 }, "geometry": { "type": "Point", "coordinates": [ 8.451267, 55.485935 ] } },
{ "type": "Feature", "properties": { "store_id": "451116d7-397d-4751-b09d-fbbb35520065", "NAME_1": "Hovedstaden", "NAME_2": "Ballerup", "DEGURBA_L1": "Urban Centre", "Tot_Pop": 50078.195329927403 }, "geometry": { "type": "Point", "coordinates": [ 12.357672, 55.729498 ] } },
{ "type": "Feature", "properties": { "store_id": "458faa1d-3692-47ee-98b8-8217c9539ee4", "NAME_1": "Hovedstaden", "NAME_2": "København", "DEGURBA_L1": "Urban Centre", "Tot_Pop": 686652.34316011705 }, "geometry": { "type": "Point", "coordinates": [ 12.573828, 55.689194 ] } },
{ "type": "Feature", "properties": { "store_id": "45900cca-84aa-447a-a10b-95f021135e55", "NAME_1": "Hovedstaden", "NAME_2": "Halsnæs", "DEGURBA_L1": "Urban Cluster", "Tot_Pop": 31269.653585613902 }, "geometry": { "type": "Point", "coordinates": [ 12.046938, 55.947734 ] } },
{ "type": "Feature", "properties": { "store_id": "4611d9a9-b373-43ec-a818-f95faa937465", "NAME_1": "Midtjylland", "NAME_2": "Skanderborg", "DEGURBA_L1": "Urban Cluster", "Tot_Pop": 66487.9296942621 }, "geometry": { "type": "Point", "coordinates": [ 9.930043, 56.032191 ] } },
{ "type": "Feature", "properties": { "store_id": "466a3feb-9c69-4b05-bf34-6117a0ea1212", "NAME_1": "Hovedstaden", "NAME_2": "København", "DEGURBA_L1": "Urban Centre", "Tot_Pop": 686652.34316011705 }, "geometry": { "type": "Point", "coordinates": [ 12.548567, 55.702666 ] } },
{ "type": "Feature", "properties": { "store_id": "4711cf77-5baa-40a7-8498-40ce33fbfb82", "NAME_1": "Sjælland", "NAME_2": "Næstved", "DEGURBA_L1": "Urban Cluster", "Tot_Pop": 85502.469069857703 }, "geometry": { "type": "Point", "coordinates": [ 11.753034, 55.218211 ] } },
{ "type": "Feature", "properties": { "store_id": "479b6841-5b8f-4005-badb-33e1bb89e1df", "NAME_1": "Syddanmark", "NAME_2": "Middelfart", "DEGURBA_L1": "Rural", "Tot_Pop": 40803.7342679063 }, "geometry": { "type": "Point", "coordinates": [ 9.8771164, 55.4604334 ] } },
{ "type": "Feature", "properties": { "store_id": "47a665a5-29f4-4891-a357-4e4b65c3b546", "NAME_1": "Sjælland", "NAME_2": "Vordingborg", "DEGURBA_L1": "Rural", "Tot_Pop": 44492.0585025896 }, "geometry": { "type": "Point", "coordinates": [ 11.95169, 55.037614 ] } },
{ "type": "Feature", "properties": { "store_id": "47dcf695-104f-4b90-a732-b8106ff029e6", "NAME_1": "Hovedstaden", "NAME_2": "Brøndby", "DEGURBA_L1": "Urban Centre", "Tot_Pop": 32748.527406021702 }, "geometry": { "type": "Point", "coordinates": [ 12.422419, 55.621676 ] } },
{ "type": "Feature", "properties": { "store_id": "48de28ab-23b9-44f4-9838-9e0cfb9d5799", "NAME_1": "Syddanmark", "NAME_2": "Fredericia", "DEGURBA_L1": "Urban Cluster", "Tot_Pop": 51984.677546901301 }, "geometry": { "type": "Point", "coordinates": [ 9.62494, 55.53743 ] } },
{ "type": "Feature", "properties": { "store_id": "4918f1f8-7261-4230-ad52-a4b53f2e3083", "NAME_1": "Sjælland", "NAME_2": "Faxe", "DEGURBA_L1": "Rural", "Tot_Pop": 35771.103503733997 }, "geometry": { "type": "Point", "coordinates": [ 12.163059, 55.216566 ] } },
{ "type": "Feature", "properties": { "store_id": "4a1759ed-fe2f-47e4-ab5f-f2eb2fddc18f", "NAME_1": "Syddanmark", "NAME_2": "Middelfart", "DEGURBA_L1": "Rural", "Tot_Pop": 40803.7342679063 }, "geometry": { "type": "Point", "coordinates": [ 9.761462, 55.498303 ] } },
{ "type": "Feature", "properties": { "store_id": "4af97779-68b8-494b-97ac-20ade963a702", "NAME_1": "Midtjylland", "NAME_2": "Favrskov", "DEGURBA_L1": "Urban Cluster", "Tot_Pop": 54939.914715578401 }, "geometry": { "type": "Point", "coordinates": [ 9.86206, 56.2574904 ] } },
{ "type": "Feature", "properties": { "store_id": "4af9a4eb-920c-44d6-83f2-833c573400d6", "NAME_1": "Hovedstaden", "NAME_2": "Hillerød", "DEGURBA_L1": "Urban Cluster", "Tot_Pop": 52200.632115126398 }, "geometry": { "type": "Point", "coordinates": [ 12.344882, 55.976762 ] } },
{ "type": "Feature", "properties": { "store_id": "4b530258-6f65-4b4d-a7fb-aeeb68e0d065", "NAME_1": "Nordjylland", "NAME_2": "Hjørring", "DEGURBA_L1": "Rural", "Tot_Pop": 64646.257569207897 }, "geometry": { "type": "Point", "coordinates": [ 9.943598, 57.354753 ] } },
{ "type": "Feature", "properties": { "store_id": "4bbb887b-3d52-4cf2-9846-a094a2f36ebd", "NAME_1": "Hovedstaden", "NAME_2": "Gribskov", "DEGURBA_L1": "Urban Cluster", "Tot_Pop": 41132.751618633498 }, "geometry": { "type": "Point", "coordinates": [ 12.28186, 56.063453 ] } },
{ "type": "Feature", "properties": { "store_id": "4c9e766e-5a4c-4641-aa07-5d8a89d83db9", "NAME_1": "Midtjylland", "NAME_2": "Århus", "DEGURBA_L1": "Urban Centre", "Tot_Pop": 360182.51957037201 }, "geometry": { "type": "Point", "coordinates": [ 10.2237665, 56.2001035 ] } },
{ "type": "Feature", "properties": { "store_id": "4cae61c0-a460-4f1c-8ac1-d9e6dc06e03f", "NAME_1": "Hovedstaden", "NAME_2": "København", "DEGURBA_L1": "Urban Centre", "Tot_Pop": 686652.34316011705 }, "geometry": { "type": "Point", "coordinates": [ 12.4696336, 55.7128532 ] } },
{ "type": "Feature", "properties": { "store_id": "4d99a744-8087-44ff-b576-4bb0f6bb6ff4", "NAME_1": "Sjælland", "NAME_2": "Roskilde", "DEGURBA_L1": "Urban Cluster", "Tot_Pop": 84542.122132885299 }, "geometry": { "type": "Point", "coordinates": [ 12.105823, 55.664742 ] } },
{ "type": "Feature", "properties": { "store_id": "4db31bb1-04f9-4eec-b284-92832794e889", "NAME_1": "Hovedstaden", "NAME_2": "Ballerup", "DEGURBA_L1": "Urban Centre", "Tot_Pop": 50078.195329927403 }, "geometry": { "type": "Point", "coordinates": [ 12.3778388, 55.7511006 ] } },
{ "type": "Feature", "properties": { "store_id": "4e58930a-3188-43c8-8078-87def1aabb5c", "NAME_1": "Hovedstaden", "NAME_2": "København", "DEGURBA_L1": "Urban Centre", "Tot_Pop": 686652.34316011705 }, "geometry": { "type": "Point", "coordinates": [ 12.561741, 55.709821 ] } },
{ "type": "Feature", "properties": { "store_id": "4eaee1da-1216-4562-b53b-6ac979ba04f3", "NAME_1": "Hovedstaden", "NAME_2": "Ballerup", "DEGURBA_L1": "Urban Centre", "Tot_Pop": 50078.195329927403 }, "geometry": { "type": "Point", "coordinates": [ 12.318515, 55.749453 ] } },
{ "type": "Feature", "properties": { "store_id": "4edfa4fd-ccbb-44dd-a0f2-efcb5c609331", "NAME_1": "Nordjylland", "NAME_2": "Aalborg", "DEGURBA_L1": "Urban Cluster", "Tot_Pop": 211021.679502101 }, "geometry": { "type": "Point", "coordinates": [ 9.907577, 57.033041 ] } },
{ "type": "Feature", "properties": { "store_id": "4f246472-6434-4ec1-9150-ba88270efb1b", "NAME_1": "Hovedstaden", "NAME_2": "København", "DEGURBA_L1": "Urban Centre", "Tot_Pop": 686652.34316011705 }, "geometry": { "type": "Point", "coordinates": [ 12.485228, 55.656348 ] } },
{ "type": "Feature", "properties": { "store_id": "4f686649-0035-4b1a-9da5-5f0f83dc9c54", "NAME_1": "Hovedstaden", "NAME_2": "Fredensborg", "DEGURBA_L1": "Urban Cluster", "Tot_Pop": 37950.907081018202 }, "geometry": { "type": "Point", "coordinates": [ 12.532318, 55.958868 ] } },
{ "type": "Feature", "properties": { "store_id": "50879c5b-e7f0-41a9-83ca-02167f2e03b0", "NAME_1": "Hovedstaden", "NAME_2": "København", "DEGURBA_L1": "Urban Centre", "Tot_Pop": 686652.34316011705 }, "geometry": { "type": "Point", "coordinates": [ 12.562178, 55.722509 ] } },
{ "type": "Feature", "properties": { "store_id": "518db451-284c-43ae-a3f0-f4cef67c8f19", "NAME_1": "Syddanmark", "NAME_2": "Odense", "DEGURBA_L1": "Urban Centre", "Tot_Pop": 215759.764306047 }, "geometry": { "type": "Point", "coordinates": [ 10.273268, 55.419387 ] } },
{ "type": "Feature", "properties": { "store_id": "51d828b9-695c-44ed-bea4-c45a3cf839a8", "NAME_1": "Midtjylland", "NAME_2": "Viborg", "DEGURBA_L1": "Rural", "Tot_Pop": 99973.806205928806 }, "geometry": { "type": "Point", "coordinates": [ 9.398546, 56.450325 ] } },
{ "type": "Feature", "properties": { "store_id": "52dae892-f661-4368-9c51-e8834871d99f", "NAME_1": "Sjælland", "NAME_2": "Greve", "DEGURBA_L1": "Urban Centre", "Tot_Pop": 47857.392656001299 }, "geometry": { "type": "Point", "coordinates": [ 12.26837, 55.56702 ] } },
{ "type": "Feature", "properties": { "store_id": "52dca4c7-882e-44d8-9ea5-bb77a818fe74", "NAME_1": "Syddanmark", "NAME_2": "Vejle", "DEGURBA_L1": "Urban Cluster", "Tot_Pop": 115660.634131574 }, "geometry": { "type": "Point", "coordinates": [ 9.520424, 55.716576 ] } },
{ "type": "Feature", "properties": { "store_id": "52fa68c5-19d8-402e-82d1-cf538ff5f614", "NAME_1": "Hovedstaden", "NAME_2": "Ishøj", "DEGURBA_L1": "Urban Centre", "Tot_Pop": 19889.941353183902 }, "geometry": { "type": "Point", "coordinates": [ 12.360171, 55.613761 ] } },
{ "type": "Feature", "properties": { "store_id": "53653850-91e9-4ce0-903b-13d0509dff06", "NAME_1": "Hovedstaden", "NAME_2": "Ishøj", "DEGURBA_L1": "Urban Centre", "Tot_Pop": 19889.941353183902 }, "geometry": { "type": "Point", "coordinates": [ 12.282457, 55.629474 ] } },
{ "type": "Feature", "properties": { "store_id": "53a3ee1e-51b2-47e2-8ffd-ee7ba5f4d618", "NAME_1": "Sjælland", "NAME_2": "Guldborgsund", "DEGURBA_L1": "Rural", "Tot_Pop": 59595.697996750801 }, "geometry": { "type": "Point", "coordinates": [ 11.877164, 54.898746 ] } },
{ "type": "Feature", "properties": { "store_id": "53a55eb7-963a-480c-89d2-dc5957753e01", "NAME_1": "Midtjylland", "NAME_2": "Norddjurs", "DEGURBA_L1": "Rural", "Tot_Pop": 36973.818597735502 }, "geometry": { "type": "Point", "coordinates": [ 10.3735217, 56.4321451 ] } },
{ "type": "Feature", "properties": { "store_id": "5430c265-d03b-4b30-856d-3ec74966df52", "NAME_1": "Hovedstaden", "NAME_2": "København", "DEGURBA_L1": "Urban Centre", "Tot_Pop": 686652.34316011705 }, "geometry": { "type": "Point", "coordinates": [ 12.5774597, 55.7098865 ] } },
{ "type": "Feature", "properties": { "store_id": "54620e2c-a34c-424e-83ff-36083a012603", "NAME_1": "Syddanmark", "NAME_2": "Fredericia", "DEGURBA_L1": "Urban Cluster", "Tot_Pop": 51984.677546901301 }, "geometry": { "type": "Point", "coordinates": [ 9.7433156, 55.5692684 ] } },
{ "type": "Feature", "properties": { "store_id": "550c219f-55ff-4d6c-b662-24a2300d1908", "NAME_1": "Hovedstaden", "NAME_2": "København", "DEGURBA_L1": "Urban Centre", "Tot_Pop": 686652.34316011705 }, "geometry": { "type": "Point", "coordinates": [ 12.54669, 55.655922 ] } },
{ "type": "Feature", "properties": { "store_id": "5618c487-6719-4c86-8a49-64bb59bbb880", "NAME_1": "Nordjylland", "NAME_2": "Mariagerfjord", "DEGURBA_L1": "Rural", "Tot_Pop": 44595.863974903703 }, "geometry": { "type": "Point", "coordinates": [ 10.112914, 56.71719 ] } },
{ "type": "Feature", "properties": { "store_id": "5730e993-bb7c-40fb-bbb1-0d1114584813", "NAME_1": "Hovedstaden", "NAME_2": "Allerød", "DEGURBA_L1": "Urban Cluster", "Tot_Pop": 26097.241255347799 }, "geometry": { "type": "Point", "coordinates": [ 12.353578, 55.877726 ] } },
{ "type": "Feature", "properties": { "store_id": "57f10317-69cb-43b1-80f9-1a46d705c21f", "NAME_1": "Hovedstaden", "NAME_2": "København", "DEGURBA_L1": "Urban Centre", "Tot_Pop": 686652.34316011705 }, "geometry": { "type": "Point", "coordinates": [ 12.5572841, 55.6890564 ] } },
{ "type": "Feature", "properties": { "store_id": "582feac6-f66a-4fb0-8e83-3fd73c750576", "NAME_1": "Syddanmark", "NAME_2": "Svendborg", "DEGURBA_L1": "Urban Cluster", "Tot_Pop": 59798.355332877501 }, "geometry": { "type": "Point", "coordinates": [ 10.5851715, 55.0606687 ] } },
{ "type": "Feature", "properties": { "store_id": "58c6ae18-e0f4-4c75-9525-7bd5e6ee9dbf", "NAME_1": "Hovedstaden", "NAME_2": "Gribskov", "DEGURBA_L1": "Urban Cluster", "Tot_Pop": 41132.751618633498 }, "geometry": { "type": "Point", "coordinates": [ 12.201362, 56.022785 ] } },
{ "type": "Feature", "properties": { "store_id": "5929ece2-5665-49d1-a759-7d29507f7d9f", "NAME_1": "Syddanmark", "NAME_2": "Assens", "DEGURBA_L1": "Rural", "Tot_Pop": 42736.9105521405 }, "geometry": { "type": "Point", "coordinates": [ 9.9010606, 55.2700601 ] } },
{ "type": "Feature", "properties": { "store_id": "594ead4a-ef86-4b34-baa1-6bb8b0bbd880", "NAME_1": "Hovedstaden", "NAME_2": "Gladsaxe", "DEGURBA_L1": "Urban Centre", "Tot_Pop": 72843.051801036097 }, "geometry": { "type": "Point", "coordinates": [ 12.459548, 55.735359 ] } },
{ "type": "Feature", "properties": { "store_id": "5969dc43-af1d-4c01-8bf0-d943d4412974", "NAME_1": "Midtjylland", "NAME_2": "Hedensted", "DEGURBA_L1": "Rural", "Tot_Pop": 50770.584517428797 }, "geometry": { "type": "Point", "coordinates": [ 9.692113, 55.804393 ] } },
{ "type": "Feature", "properties": { "store_id": "59790dc9-193f-4a81-a89b-35329933b0fa", "NAME_1": "Nordjylland", "NAME_2": "Aalborg", "DEGURBA_L1": "Urban Cluster", "Tot_Pop": 211021.679502101 }, "geometry": { "type": "Point", "coordinates": [ 9.880087, 57.005174 ] } },
{ "type": "Feature", "properties": { "store_id": "5a5a3b85-1c8c-433e-a56c-23f6326306f7", "NAME_1": "Midtjylland", "NAME_2": "Århus", "DEGURBA_L1": "Urban Centre", "Tot_Pop": 360182.51957037201 }, "geometry": { "type": "Point", "coordinates": [ 10.18228, 56.155654 ] } },
{ "type": "Feature", "properties": { "store_id": "5b79d293-554c-4142-9880-96002202055e", "NAME_1": "Midtjylland", "NAME_2": "Århus", "DEGURBA_L1": "Urban Centre", "Tot_Pop": 360182.51957037201 }, "geometry": { "type": "Point", "coordinates": [ 10.16028, 56.12753 ] } },
{ "type": "Feature", "properties": { "store_id": "5cac643b-154d-4e81-8e49-0fde5cca79e7", "NAME_1": "Nordjylland", "NAME_2": "Hjørring", "DEGURBA_L1": "Rural", "Tot_Pop": 64646.257569207897 }, "geometry": { "type": "Point", "coordinates": [ 9.960405, 57.590504 ] } },
{ "type": "Feature", "properties": { "store_id": "5cb1d0ae-e5cd-4a2a-bf85-0abe7ecf650b", "NAME_1": "Hovedstaden", "NAME_2": "København", "DEGURBA_L1": "Urban Centre", "Tot_Pop": 686652.34316011705 }, "geometry": { "type": "Point", "coordinates": [ 12.547003, 55.670572 ] } },
{ "type": "Feature", "properties": { "store_id": "5d217956-c6e1-409d-b7a7-64d469246c1b", "NAME_1": "Hovedstaden", "NAME_2": "Furesø", "DEGURBA_L1": "Urban Cluster", "Tot_Pop": 40144.050307430101 }, "geometry": { "type": "Point", "coordinates": [ 12.378791, 55.814504 ] } },
{ "type": "Feature", "properties": { "store_id": "5e08422f-adaf-4109-bfd7-b36f3f6009d5", "NAME_1": "Hovedstaden", "NAME_2": "København", "DEGURBA_L1": "Urban Centre", "Tot_Pop": 686652.34316011705 }, "geometry": { "type": "Point", "coordinates": [ 12.5384907, 55.7072513 ] } },
{ "type": "Feature", "properties": { "store_id": "5e2aef90-6c4a-4918-b1e8-df20ba06b65e", "NAME_1": "Midtjylland", "NAME_2": "Viborg", "DEGURBA_L1": "Rural", "Tot_Pop": 99973.806205928806 }, "geometry": { "type": "Point", "coordinates": [ 9.39243, 56.43319 ] } },
{ "type": "Feature", "properties": { "store_id": "5e2b1119-32fc-4b86-baf3-daa2baa91c0b", "NAME_1": "Sjælland", "NAME_2": "Næstved", "DEGURBA_L1": "Urban Cluster", "Tot_Pop": 85502.469069857703 }, "geometry": { "type": "Point", "coordinates": [ 11.8646125, 55.1836365 ] } },
{ "type": "Feature", "properties": { "store_id": "5ebb4f99-7125-470e-9e31-a638b1b65af2", "NAME_1": "Hovedstaden", "NAME_2": "København", "DEGURBA_L1": "Urban Centre", "Tot_Pop": 686652.34316011705 }, "geometry": { "type": "Point", "coordinates": [ 12.5851525, 55.7030021 ] } },
{ "type": "Feature", "properties": { "store_id": "60a92065-e61b-4020-9f5e-972a0e8b7d3e", "NAME_1": "Hovedstaden", "NAME_2": "Tårnby", "DEGURBA_L1": "Urban Centre", "Tot_Pop": 42869.132494344703 }, "geometry": { "type": "Point", "coordinates": [ 12.63662, 55.63461 ] } },
{ "type": "Feature", "properties": { "store_id": "61eaa1ba-649b-4050-bcb9-d5e5585b3ae6", "NAME_1": "Midtjylland", "NAME_2": "Randers", "DEGURBA_L1": "Urban Cluster", "Tot_Pop": 101324.798246135 }, "geometry": { "type": "Point", "coordinates": [ 10.066817, 56.472478 ] } },
{ "type": "Feature", "properties": { "store_id": "625cd0d4-53a6-4cac-90df-211341f1546e", "NAME_1": "Syddanmark", "NAME_2": "Odense", "DEGURBA_L1": "Urban Centre", "Tot_Pop": 215759.764306047 }, "geometry": { "type": "Point", "coordinates": [ 10.357081, 55.367802 ] } },
{ "type": "Feature", "properties": { "store_id": "630ab4f0-24d3-45a0-b51d-b50613dac71a", "NAME_1": "Syddanmark", "NAME_2": "Kolding", "DEGURBA_L1": "Urban Cluster", "Tot_Pop": 97809.466360831197 }, "geometry": { "type": "Point", "coordinates": [ 9.4873262, 55.3555 ] } },
{ "type": "Feature", "properties": { "store_id": "63765d8a-71a2-45a7-b1ce-a63b8cec8ed1", "NAME_1": "Hovedstaden", "NAME_2": "København", "DEGURBA_L1": "Urban Centre", "Tot_Pop": 686652.34316011705 }, "geometry": { "type": "Point", "coordinates": [ 12.5805051, 55.707293 ] } },
{ "type": "Feature", "properties": { "store_id": "63b3041a-a608-4974-ba95-769c50bc682c", "NAME_1": "Sjælland", "NAME_2": "Guldborgsund", "DEGURBA_L1": "Rural", "Tot_Pop": 59595.697996750801 }, "geometry": { "type": "Point", "coordinates": [ 11.964153, 54.692016 ] } },
{ "type": "Feature", "properties": { "store_id": "63bd1185-7e0b-4c65-8e43-7a0473585542", "NAME_1": "Sjælland", "NAME_2": "Vordingborg", "DEGURBA_L1": "Rural", "Tot_Pop": 44492.0585025896 }, "geometry": { "type": "Point", "coordinates": [ 11.895869, 55.002742 ] } },
{ "type": "Feature", "properties": { "store_id": "63f2324e-f361-42eb-ad05-a3afffdde74e", "NAME_1": "Hovedstaden", "NAME_2": "Tårnby", "DEGURBA_L1": "Urban Centre", "Tot_Pop": 42869.132494344703 }, "geometry": { "type": "Point", "coordinates": [ 12.6014744, 55.630062 ] } },
{ "type": "Feature", "properties": { "store_id": "6408ed3e-5581-49aa-8ddd-9bfae159b020", "NAME_1": "Hovedstaden", "NAME_2": "Brøndby", "DEGURBA_L1": "Urban Centre", "Tot_Pop": 32748.527406021702 }, "geometry": { "type": "Point", "coordinates": [ 12.438092, 55.667384 ] } },
{ "type": "Feature", "properties": { "store_id": "64fb6423-57b0-457c-a054-8a024a2d86b8", "NAME_1": "Hovedstaden", "NAME_2": "Gladsaxe", "DEGURBA_L1": "Urban Centre", "Tot_Pop": 72843.051801036097 }, "geometry": { "type": "Point", "coordinates": [ 12.507216, 55.738026 ] } },
{ "type": "Feature", "properties": { "store_id": "655ea375-e01d-45e4-8344-73d3c670cad9", "NAME_1": "Syddanmark", "NAME_2": "Odense", "DEGURBA_L1": "Urban Centre", "Tot_Pop": 215759.764306047 }, "geometry": { "type": "Point", "coordinates": [ 10.340857, 55.357128 ] } },
{ "type": "Feature", "properties": { "store_id": "67766b50-4cc6-4658-8fc4-a9b2db468f91", "NAME_1": "Midtjylland", "NAME_2": "Århus", "DEGURBA_L1": "Urban Centre", "Tot_Pop": 360182.51957037201 }, "geometry": { "type": "Point", "coordinates": [ 10.16631, 56.1557 ] } },
{ "type": "Feature", "properties": { "store_id": "67857bb1-2cc6-406c-9775-3654ecf06d6e", "NAME_1": "Syddanmark", "NAME_2": "Esbjerg", "DEGURBA_L1": "Urban Cluster", "Tot_Pop": 117803.31425356401 }, "geometry": { "type": "Point", "coordinates": [ 8.771046, 55.331309 ] } },
{ "type": "Feature", "properties": { "store_id": "680e79c8-7a42-424b-bb73-21e1ad3cabd1", "NAME_1": "Syddanmark", "NAME_2": "Odense", "DEGURBA_L1": "Urban Centre", "Tot_Pop": 215759.764306047 }, "geometry": { "type": "Point", "coordinates": [ 10.38366, 55.40769 ] } },
{ "type": "Feature", "properties": { "store_id": "68385fa6-4086-4c10-95e2-6e7649002687", "NAME_1": "Syddanmark", "NAME_2": "Assens", "DEGURBA_L1": "Rural", "Tot_Pop": 42736.9105521405 }, "geometry": { "type": "Point", "coordinates": [ 10.193061369715876, 55.387716141423077 ] } },
{ "type": "Feature", "properties": { "store_id": "683d62ae-1aae-4878-b345-b99ec5cdf541", "NAME_1": "Hovedstaden", "NAME_2": "København", "DEGURBA_L1": "Urban Centre", "Tot_Pop": 686652.34316011705 }, "geometry": { "type": "Point", "coordinates": [ 12.573134, 55.683769 ] } },
{ "type": "Feature", "properties": { "store_id": "687e966c-55bf-4765-a5cc-f3637fc1de49", "NAME_1": "Nordjylland", "NAME_2": "Hjørring", "DEGURBA_L1": "Rural", "Tot_Pop": 64646.257569207897 }, "geometry": { "type": "Point", "coordinates": [ 9.99361, 57.432916 ] } },
{ "type": "Feature", "properties": { "store_id": "68b426ec-4097-4c25-8842-c3ba12c63516", "NAME_1": "Hovedstaden", "NAME_2": "København", "DEGURBA_L1": "Urban Centre", "Tot_Pop": 686652.34316011705 }, "geometry": { "type": "Point", "coordinates": [ 12.505596, 55.705184 ] } },
{ "type": "Feature", "properties": { "store_id": "68eabdb2-44f8-42ed-9602-df6bbabcf725", "NAME_1": "Midtjylland", "NAME_2": "Skive", "DEGURBA_L1": "Rural", "Tot_Pop": 45554.965355513399 }, "geometry": { "type": "Point", "coordinates": [ 9.003135, 56.568705 ] } },
{ "type": "Feature", "properties": { "store_id": "693666f6-6d9d-4ddd-ae26-9de84aadac57", "NAME_1": "Nordjylland", "NAME_2": "Aalborg", "DEGURBA_L1": "Urban Cluster", "Tot_Pop": 211021.679502101 }, "geometry": { "type": "Point", "coordinates": [ 9.9345567, 57.0364713 ] } },
{ "type": "Feature", "properties": { "store_id": "69d79a53-0f02-47a3-9330-0286b04e7866", "NAME_1": "Hovedstaden", "NAME_2": "Hvidovre", "DEGURBA_L1": "Urban Centre", "Tot_Pop": 50392.302962145099 }, "geometry": { "type": "Point", "coordinates": [ 12.4791779, 55.640506 ] } },
{ "type": "Feature", "properties": { "store_id": "6a5160ae-f6a5-46c8-8533-bc2cbc6587dc", "NAME_1": "Sjælland", "NAME_2": "Holbæk", "DEGURBA_L1": "Rural", "Tot_Pop": 74270.591435328606 }, "geometry": { "type": "Point", "coordinates": [ 11.504825, 55.646495 ] } },
{ "type": "Feature", "properties": { "store_id": "6a6595b8-eacc-4c5b-a1e3-6d3bad51b609", "NAME_1": "Hovedstaden", "NAME_2": "København", "DEGURBA_L1": "Urban Centre", "Tot_Pop": 686652.34316011705 }, "geometry": { "type": "Point", "coordinates": [ 12.6029107, 55.6780837 ] } },
{ "type": "Feature", "properties": { "store_id": "6b0c387c-67b3-4a1f-bb5f-c63dfd9218a6", "NAME_1": "Hovedstaden", "NAME_2": "Frederiksberg", "DEGURBA_L1": "Urban Centre", "Tot_Pop": 118648.281450514 }, "geometry": { "type": "Point", "coordinates": [ 12.5370723, 55.6966641 ] } },
{ "type": "Feature", "properties": { "store_id": "6b20f451-d1ad-43ba-ab20-e75d6174ff0d", "NAME_1": "Syddanmark", "NAME_2": "Odense", "DEGURBA_L1": "Urban Centre", "Tot_Pop": 215759.764306047 }, "geometry": { "type": "Point", "coordinates": [ 10.3696355, 55.4162362 ] } },
{ "type": "Feature", "properties": { "store_id": "6b87cd2b-ae47-47a9-a497-9cbcbfa1e01d", "NAME_1": "Syddanmark", "NAME_2": "Odense", "DEGURBA_L1": "Urban Centre", "Tot_Pop": 215759.764306047 }, "geometry": { "type": "Point", "coordinates": [ 10.39141, 55.400756 ] } },
{ "type": "Feature", "properties": { "store_id": "6b94d422-190d-4a87-b938-6557df68d21f", "NAME_1": "Sjælland", "NAME_2": "Lejre", "DEGURBA_L1": "Rural", "Tot_Pop": 28541.726621084599 }, "geometry": { "type": "Point", "coordinates": [ 11.858164, 55.689467 ] } },
{ "type": "Feature", "properties": { "store_id": "6ba6a678-77c9-4368-910f-b65c421ae59a", "NAME_1": "Hovedstaden", "NAME_2": "København", "DEGURBA_L1": "Urban Centre", "Tot_Pop": 686652.34316011705 }, "geometry": { "type": "Point", "coordinates": [ 12.6096818, 55.6652333 ] } },
{ "type": "Feature", "properties": { "store_id": "6c594148-59f5-4a28-83c5-2f079f41c6fc", "NAME_1": "Hovedstaden", "NAME_2": "Rudersdal", "DEGURBA_L1": "Urban Cluster", "Tot_Pop": 55795.335356919997 }, "geometry": { "type": "Point", "coordinates": [ 12.4339995, 55.8274904 ] } },
{ "type": "Feature", "properties": { "store_id": "6c5f5ae5-3bea-4f5e-9707-2d137d239cd7", "NAME_1": "Midtjylland", "NAME_2": "Holstebro", "DEGURBA_L1": "Urban Cluster", "Tot_Pop": 58608.6459762956 }, "geometry": { "type": "Point", "coordinates": [ 8.321038, 56.271218 ] } },
{ "type": "Feature", "properties": { "store_id": "6cb6a8b2-3a26-48ba-87dd-4c4c215c1b64", "NAME_1": "Hovedstaden", "NAME_2": "København", "DEGURBA_L1": "Urban Centre", "Tot_Pop": 686652.34316011705 }, "geometry": { "type": "Point", "coordinates": [ 12.596899, 55.668604 ] } },
{ "type": "Feature", "properties": { "store_id": "6cdf90cb-f84c-480a-b49c-93f26c59b417", "NAME_1": "Hovedstaden", "NAME_2": "Glostrup", "DEGURBA_L1": "Urban Centre", "Tot_Pop": 24229.0085287355 }, "geometry": { "type": "Point", "coordinates": [ 12.415825, 55.667112 ] } },
{ "type": "Feature", "properties": { "store_id": "6d53baf8-1077-4c29-89d0-24ab1f5cbf16", "NAME_1": "Hovedstaden", "NAME_2": "København", "DEGURBA_L1": "Urban Centre", "Tot_Pop": 686652.34316011705 }, "geometry": { "type": "Point", "coordinates": [ 12.53596, 55.66715 ] } },
{ "type": "Feature", "properties": { "store_id": "6d7026eb-59f4-4a55-bd85-f38bc3c37183", "NAME_1": "Nordjylland", "NAME_2": "Frederikshavn", "DEGURBA_L1": "Urban Cluster", "Tot_Pop": 57099.405619373203 }, "geometry": { "type": "Point", "coordinates": [ 10.589827, 57.723374 ] } },
{ "type": "Feature", "properties": { "store_id": "6e00370c-0def-45d8-a6d4-51852f1a5885", "NAME_1": "Hovedstaden", "NAME_2": "Helsingør", "DEGURBA_L1": "Urban Cluster", "Tot_Pop": 61761.973865623702 }, "geometry": { "type": "Point", "coordinates": [ 12.587736, 56.04026 ] } },
{ "type": "Feature", "properties": { "store_id": "6ee54581-9368-4fed-9129-11758c2925cb", "NAME_1": "Syddanmark", "NAME_2": "Odense", "DEGURBA_L1": "Urban Centre", "Tot_Pop": 215759.764306047 }, "geometry": { "type": "Point", "coordinates": [ 10.430065, 55.374036 ] } },
{ "type": "Feature", "properties": { "store_id": "6f9372d6-d1e4-41a3-8188-676ed1a1ddb5", "NAME_1": "Syddanmark", "NAME_2": "Billund", "DEGURBA_L1": "Rural", "Tot_Pop": 26172.065506674899 }, "geometry": { "type": "Point", "coordinates": [ 9.108873, 55.733507 ] } },
{ "type": "Feature", "properties": { "store_id": "6fb3c05c-3941-42d6-bc8b-62d251153252", "NAME_1": "Hovedstaden", "NAME_2": "Herlev", "DEGURBA_L1": "Urban Centre", "Tot_Pop": 25315.340440286302 }, "geometry": { "type": "Point", "coordinates": [ 12.397486, 55.748902 ] } },
{ "type": "Feature", "properties": { "store_id": "70215fdb-4481-4cc4-b290-643ad1cf7353", "NAME_1": "Midtjylland", "NAME_2": "Århus", "DEGURBA_L1": "Urban Centre", "Tot_Pop": 360182.51957037201 }, "geometry": { "type": "Point", "coordinates": [ 10.260839, 56.201817 ] } },
{ "type": "Feature", "properties": { "store_id": "704cb656-3939-40d2-8bfb-cac47fd3050a", "NAME_1": "Sjælland", "NAME_2": "Vordingborg", "DEGURBA_L1": "Rural", "Tot_Pop": 44492.0585025896 }, "geometry": { "type": "Point", "coordinates": [ 12.027714, 54.99577 ] } },
{ "type": "Feature", "properties": { "store_id": "7062ea13-f17f-460a-b6a2-e6cdb33f369f", "NAME_1": "Sjælland", "NAME_2": "Næstved", "DEGURBA_L1": "Urban Cluster", "Tot_Pop": 85502.469069857703 }, "geometry": { "type": "Point", "coordinates": [ 11.7554638, 55.2560135 ] } },
{ "type": "Feature", "properties": { "store_id": "7094712b-feda-4c89-b2e7-a384b13ae0e3", "NAME_1": "Midtjylland", "NAME_2": "Århus", "DEGURBA_L1": "Urban Centre", "Tot_Pop": 360182.51957037201 }, "geometry": { "type": "Point", "coordinates": [ 10.20672, 56.10727 ] } },
{ "type": "Feature", "properties": { "store_id": "70bd812b-1bda-432a-bd9e-0024d3ee06f5", "NAME_1": "Syddanmark", "NAME_2": "Kolding", "DEGURBA_L1": "Urban Cluster", "Tot_Pop": 97809.466360831197 }, "geometry": { "type": "Point", "coordinates": [ 9.462509, 55.523552 ] } },
{ "type": "Feature", "properties": { "store_id": "70c07152-6cca-4fb6-a330-4398c8c24969", "NAME_1": "Hovedstaden", "NAME_2": "København", "DEGURBA_L1": "Urban Centre", "Tot_Pop": 686652.34316011705 }, "geometry": { "type": "Point", "coordinates": [ 12.5158356, 55.6642592 ] } },
{ "type": "Feature", "properties": { "store_id": "713763ba-977a-4d84-b16d-a6017b9091cd", "NAME_1": "Sjælland", "NAME_2": "Guldborgsund", "DEGURBA_L1": "Rural", "Tot_Pop": 59595.697996750801 }, "geometry": { "type": "Point", "coordinates": [ 12.03655, 54.88665 ] } },
{ "type": "Feature", "properties": { "store_id": "71579711-6886-4784-acc8-85f3f1241f98", "NAME_1": "Midtjylland", "NAME_2": "Randers", "DEGURBA_L1": "Urban Cluster", "Tot_Pop": 101324.798246135 }, "geometry": { "type": "Point", "coordinates": [ 10.049644, 56.438866 ] } },
{ "type": "Feature", "properties": { "store_id": "715b8195-1448-4abd-ae46-aea8c72456e9", "NAME_1": "Nordjylland", "NAME_2": "Brønderslev", "DEGURBA_L1": "Rural", "Tot_Pop": 36878.916883790604 }, "geometry": { "type": "Point", "coordinates": [ 9.946581, 57.266159 ] } },
{ "type": "Feature", "properties": { "store_id": "720e790a-5c74-4611-8d66-d6b121b1212b", "NAME_1": "Hovedstaden", "NAME_2": "Gribskov", "DEGURBA_L1": "Urban Cluster", "Tot_Pop": 41132.751618633498 }, "geometry": { "type": "Point", "coordinates": [ 12.24022, 56.11665 ] } },
{ "type": "Feature", "properties": { "store_id": "72b00e0c-2b1d-4348-83d8-132aad2bb7a8", "NAME_1": "Hovedstaden", "NAME_2": "Ishøj", "DEGURBA_L1": "Urban Centre", "Tot_Pop": 19889.941353183902 }, "geometry": { "type": "Point", "coordinates": [ 12.353534, 55.604645 ] } },
{ "type": "Feature", "properties": { "store_id": "72eaa288-7edf-41ef-966f-065abbed0461", "NAME_1": "Hovedstaden", "NAME_2": "Lyngby-Taarbæk", "DEGURBA_L1": "Urban Centre", "Tot_Pop": 53995.2580948127 }, "geometry": { "type": "Point", "coordinates": [ 12.524157, 55.783828 ] } },
{ "type": "Feature", "properties": { "store_id": "73c5514a-102f-4426-8ece-cbb42f9d1887", "NAME_1": "Syddanmark", "NAME_2": "Fredericia", "DEGURBA_L1": "Urban Cluster", "Tot_Pop": 51984.677546901301 }, "geometry": { "type": "Point", "coordinates": [ 9.760798, 55.575992 ] } },
{ "type": "Feature", "properties": { "store_id": "73d3e7b2-3325-4fa3-ab79-e59326fde93a", "NAME_1": "Midtjylland", "NAME_2": "Randers", "DEGURBA_L1": "Urban Cluster", "Tot_Pop": 101324.798246135 }, "geometry": { "type": "Point", "coordinates": [ 10.030175, 56.464976 ] } },
{ "type": "Feature", "properties": { "store_id": "746c1205-366a-4441-9cc6-51e4e6254f66", "NAME_1": "Midtjylland", "NAME_2": "Århus", "DEGURBA_L1": "Urban Centre", "Tot_Pop": 360182.51957037201 }, "geometry": { "type": "Point", "coordinates": [ 10.2022894, 56.0563696 ] } },
{ "type": "Feature", "properties": { "store_id": "75a82841-37af-49eb-a7b9-c95b70254b06", "NAME_1": "Syddanmark", "NAME_2": "Tønder", "DEGURBA_L1": "Rural", "Tot_Pop": 37069.290942309803 }, "geometry": { "type": "Point", "coordinates": [ 8.7693339, 55.1583901 ] } },
{ "type": "Feature", "properties": { "store_id": "75bf0949-0fe2-4e83-8e85-e71d98844f0f", "NAME_1": "Hovedstaden", "NAME_2": "København", "DEGURBA_L1": "Urban Centre", "Tot_Pop": 686652.34316011705 }, "geometry": { "type": "Point", "coordinates": [ 12.6140549, 55.6474944 ] } },
{ "type": "Feature", "properties": { "store_id": "769204f1-d8e4-41fb-8b9c-0b8b8f885376", "NAME_1": "Sjælland", "NAME_2": "Roskilde", "DEGURBA_L1": "Urban Cluster", "Tot_Pop": 84542.122132885299 }, "geometry": { "type": "Point", "coordinates": [ 12.0704879, 55.6342849 ] } },
{ "type": "Feature", "properties": { "store_id": "77c394d6-c40e-43f4-a62e-46c6f1643274", "NAME_1": "Hovedstaden", "NAME_2": "København", "DEGURBA_L1": "Urban Centre", "Tot_Pop": 686652.34316011705 }, "geometry": { "type": "Point", "coordinates": [ 12.53088, 55.70321 ] } },
{ "type": "Feature", "properties": { "store_id": "77d3a3e9-7344-402c-ace3-325a5b7ddeea", "NAME_1": "Hovedstaden", "NAME_2": "Frederikssund", "DEGURBA_L1": "Urban Cluster", "Tot_Pop": 46058.403038235403 }, "geometry": { "type": "Point", "coordinates": [ 12.065877, 55.847405 ] } },
{ "type": "Feature", "properties": { "store_id": "77f084bc-bb73-42de-9d25-7fb1d84a02b9", "NAME_1": "Midtjylland", "NAME_2": "Århus", "DEGURBA_L1": "Urban Centre", "Tot_Pop": 360182.51957037201 }, "geometry": { "type": "Point", "coordinates": [ 10.14691, 56.11355 ] } },
{ "type": "Feature", "properties": { "store_id": "78b1c192-44c8-4656-a2d6-95463e8a4ec4", "NAME_1": "Hovedstaden", "NAME_2": "Vallensbæk", "DEGURBA_L1": "Urban Centre", "Tot_Pop": 26718.2063069863 }, "geometry": { "type": "Point", "coordinates": [ 12.389157, 55.622864 ] } },
{ "type": "Feature", "properties": { "store_id": "78c129a0-6273-475f-9640-cec700f11948", "NAME_1": "Midtjylland", "NAME_2": "Århus", "DEGURBA_L1": "Urban Centre", "Tot_Pop": 360182.51957037201 }, "geometry": { "type": "Point", "coordinates": [ 10.2053822, 56.1514686 ] } },
{ "type": "Feature", "properties": { "store_id": "78fe367c-cd14-4ccc-aef1-fd3a33687c09", "NAME_1": "Hovedstaden", "NAME_2": "København", "DEGURBA_L1": "Urban Centre", "Tot_Pop": 686652.34316011705 }, "geometry": { "type": "Point", "coordinates": [ 12.481128, 55.691778 ] } },
{ "type": "Feature", "properties": { "store_id": "794c0820-9458-45e7-a16c-2b4dce40159e", "NAME_1": "Syddanmark", "NAME_2": "Aabenraa", "DEGURBA_L1": "Rural", "Tot_Pop": 59056.2986655614 }, "geometry": { "type": "Point", "coordinates": [ 9.40329, 55.05259 ] } },
{ "type": "Feature", "properties": { "store_id": "7a32fc91-9235-4441-84e6-4f28e2817a61", "NAME_1": "Hovedstaden", "NAME_2": "København", "DEGURBA_L1": "Urban Centre", "Tot_Pop": 686652.34316011705 }, "geometry": { "type": "Point", "coordinates": [ 12.596301, 55.708225 ] } },
{ "type": "Feature", "properties": { "store_id": "7abf7dc3-b7c1-4637-8e0c-dab93c0cb164", "NAME_1": "Hovedstaden", "NAME_2": "Herlev", "DEGURBA_L1": "Urban Centre", "Tot_Pop": 25315.340440286302 }, "geometry": { "type": "Point", "coordinates": [ 12.43711, 55.717 ] } },
{ "type": "Feature", "properties": { "store_id": "7ad81f8a-ed1f-4d77-b726-5742ce15fd9b", "NAME_1": "Hovedstaden", "NAME_2": "København", "DEGURBA_L1": "Urban Centre", "Tot_Pop": 686652.34316011705 }, "geometry": { "type": "Point", "coordinates": [ 12.592577, 55.65702 ] } },
{ "type": "Feature", "properties": { "store_id": "7ad95163-1fdd-4b21-aaf4-e3ffc1b26dce", "NAME_1": "Sjælland", "NAME_2": "Slagelse", "DEGURBA_L1": "Urban Cluster", "Tot_Pop": 78286.817517303105 }, "geometry": { "type": "Point", "coordinates": [ 11.1554351, 55.3224066 ] } },
{ "type": "Feature", "properties": { "store_id": "7b4a93f9-5ed9-4417-8cd2-60473a7e0aff", "NAME_1": "Syddanmark", "NAME_2": "Vejen", "DEGURBA_L1": "Rural", "Tot_Pop": 46718.721771667202 }, "geometry": { "type": "Point", "coordinates": [ 9.20636, 55.356379 ] } },
{ "type": "Feature", "properties": { "store_id": "7bc8e6d8-a520-4b24-82ea-af579ad181f1", "NAME_1": "Hovedstaden", "NAME_2": "Hørsholm", "DEGURBA_L1": "Urban Cluster", "Tot_Pop": 24193.974245670299 }, "geometry": { "type": "Point", "coordinates": [ 12.50858, 55.882554 ] } },
{ "type": "Feature", "properties": { "store_id": "7bde9d6f-8928-4eea-ba67-ac6c4ea5e8db", "NAME_1": "Hovedstaden", "NAME_2": "København", "DEGURBA_L1": "Urban Centre", "Tot_Pop": 686652.34316011705 }, "geometry": { "type": "Point", "coordinates": [ 12.619083, 55.659672 ] } },
{ "type": "Feature", "properties": { "store_id": "7c06843e-3bcc-4b57-83b0-42262e56bc7d", "NAME_1": "Midtjylland", "NAME_2": "Randers", "DEGURBA_L1": "Urban Cluster", "Tot_Pop": 101324.798246135 }, "geometry": { "type": "Point", "coordinates": [ 10.148236, 56.439936 ] } },
{ "type": "Feature", "properties": { "store_id": "7c07a4a0-9600-472b-a823-ab67edab1371", "NAME_1": "Sjælland", "NAME_2": "Næstved", "DEGURBA_L1": "Urban Cluster", "Tot_Pop": 85502.469069857703 }, "geometry": { "type": "Point", "coordinates": [ 11.781382, 55.233827 ] } },
{ "type": "Feature", "properties": { "store_id": "7d367866-6e6a-4d1b-b44c-7c55507ecb97", "NAME_1": "Syddanmark", "NAME_2": "Nyborg", "DEGURBA_L1": "Urban Cluster", "Tot_Pop": 32124.1813528313 }, "geometry": { "type": "Point", "coordinates": [ 10.67279, 55.363011 ] } },
{ "type": "Feature", "properties": { "store_id": "7d6ef327-9115-4d03-8610-0cc85409a627", "NAME_1": "Syddanmark", "NAME_2": "Haderslev", "DEGURBA_L1": "Rural", "Tot_Pop": 55871.994601730701 }, "geometry": { "type": "Point", "coordinates": [ 9.5006147, 55.2524059 ] } },
{ "type": "Feature", "properties": { "store_id": "7de522de-9255-4f02-9015-40fd8bab3ecd", "NAME_1": "Midtjylland", "NAME_2": "Århus", "DEGURBA_L1": "Urban Centre", "Tot_Pop": 360182.51957037201 }, "geometry": { "type": "Point", "coordinates": [ 10.21476, 56.18756 ] } },
{ "type": "Feature", "properties": { "store_id": "7f0275f8-6008-436b-91fb-45e8dfcf9c0b", "NAME_1": "Hovedstaden", "NAME_2": "Hillerød", "DEGURBA_L1": "Urban Cluster", "Tot_Pop": 52200.632115126398 }, "geometry": { "type": "Point", "coordinates": [ 12.260863, 55.942032 ] } },
{ "type": "Feature", "properties": { "store_id": "7f14a7b7-43da-4ed7-a2c2-69ae173e0d1f", "NAME_1": "Hovedstaden", "NAME_2": "Frederiksberg", "DEGURBA_L1": "Urban Centre", "Tot_Pop": 118648.281450514 }, "geometry": { "type": "Point", "coordinates": [ 12.5164615, 55.6815785 ] } },
{ "type": "Feature", "properties": { "store_id": "7f3d9e26-1924-42df-baf1-db2d89979028", "NAME_1": "Sjælland", "NAME_2": "Odsherred", "DEGURBA_L1": "Rural", "Tot_Pop": 33108.628086286102 }, "geometry": { "type": "Point", "coordinates": [ 11.5782167, 55.8535101 ] } },
{ "type": "Feature", "properties": { "store_id": "7fd81b2b-219b-4795-a561-c1a9d3fb28d1", "NAME_1": "Hovedstaden", "NAME_2": "Hvidovre", "DEGURBA_L1": "Urban Centre", "Tot_Pop": 50392.302962145099 }, "geometry": { "type": "Point", "coordinates": [ 12.474233, 55.663818 ] } },
{ "type": "Feature", "properties": { "store_id": "8093199f-aff0-46a1-8c93-324c396ab124", "NAME_1": "Sjælland", "NAME_2": "Køge", "DEGURBA_L1": "Urban Cluster", "Tot_Pop": 59718.488650037398 }, "geometry": { "type": "Point", "coordinates": [ 12.036898, 55.460637 ] } },
{ "type": "Feature", "properties": { "store_id": "80bf47ae-31b9-464b-a6b6-2b3927bc37cc", "NAME_1": "Nordjylland", "NAME_2": "Vesthimmerland", "DEGURBA_L1": "Rural", "Tot_Pop": 38195.676422243603 }, "geometry": { "type": "Point", "coordinates": [ 9.510834, 56.803181 ] } },
{ "type": "Feature", "properties": { "store_id": "80c9402d-4d0d-4b67-8887-62a7cfefedf5", "NAME_1": "Hovedstaden", "NAME_2": "København", "DEGURBA_L1": "Urban Centre", "Tot_Pop": 686652.34316011705 }, "geometry": { "type": "Point", "coordinates": [ 12.53749, 55.663871 ] } },
{ "type": "Feature", "properties": { "store_id": "81ecf729-d8e7-47b7-876f-c314e13f386e", "NAME_1": "Sjælland", "NAME_2": "Holbæk", "DEGURBA_L1": "Rural", "Tot_Pop": 74270.591435328606 }, "geometry": { "type": "Point", "coordinates": [ 11.742951, 55.670164 ] } },
{ "type": "Feature", "properties": { "store_id": "8204ef89-a12e-4717-8069-7e10eca98279", "NAME_1": "Sjælland", "NAME_2": "Ringsted", "DEGURBA_L1": "Urban Cluster", "Tot_Pop": 37825.699078452897 }, "geometry": { "type": "Point", "coordinates": [ 11.792683, 55.4393321 ] } },
{ "type": "Feature", "properties": { "store_id": "82595089-fc63-4fd5-a481-94140ecb2e2c", "NAME_1": "Hovedstaden", "NAME_2": "København", "DEGURBA_L1": "Urban Centre", "Tot_Pop": 686652.34316011705 }, "geometry": { "type": "Point", "coordinates": [ 12.5727594, 55.6602064 ] } },
{ "type": "Feature", "properties": { "store_id": "82a22db4-f968-4925-a0c1-e00d15b4e897", "NAME_1": "Syddanmark", "NAME_2": "Kerteminde", "DEGURBA_L1": "Rural", "Tot_Pop": 24655.198321667602 }, "geometry": { "type": "Point", "coordinates": [ 10.66345, 55.45284 ] } },
{ "type": "Feature", "properties": { "store_id": "82a3d180-d56a-4d07-97fd-52de877e2d3d", "NAME_1": "Hovedstaden", "NAME_2": "Helsingør", "DEGURBA_L1": "Urban Cluster", "Tot_Pop": 61761.973865623702 }, "geometry": { "type": "Point", "coordinates": [ 12.4572212, 56.0893767 ] } },
{ "type": "Feature", "properties": { "store_id": "83543400-dd41-4432-8748-8d900bf6ee6b", "NAME_1": "Nordjylland", "NAME_2": "Frederikshavn", "DEGURBA_L1": "Urban Cluster", "Tot_Pop": 57099.405619373203 }, "geometry": { "type": "Point", "coordinates": [ 10.516539, 57.434047 ] } },
{ "type": "Feature", "properties": { "store_id": "83af643a-3518-41cd-86ac-18ffc9930bb3", "NAME_1": "Sjælland", "NAME_2": "Stevns", "DEGURBA_L1": "Rural", "Tot_Pop": 22072.006039722401 }, "geometry": { "type": "Point", "coordinates": [ 12.3894585, 55.3112221 ] } },
{ "type": "Feature", "properties": { "store_id": "83c07b9d-b960-456e-9d16-f0b3b066bea8", "NAME_1": "Sjælland", "NAME_2": "Odsherred", "DEGURBA_L1": "Rural", "Tot_Pop": 33108.628086286102 }, "geometry": { "type": "Point", "coordinates": [ 11.4995622, 55.812406 ] } },
{ "type": "Feature", "properties": { "store_id": "83c0b980-fb7b-4cb0-a76d-0109f533b164", "NAME_1": "Hovedstaden", "NAME_2": "HøjeTaastrup", "DEGURBA_L1": "Urban Cluster", "Tot_Pop": 52115.0201965671 }, "geometry": { "type": "Point", "coordinates": [ 12.3003648, 55.6526031 ] } },
{ "type": "Feature", "properties": { "store_id": "8524b747-1c4d-4228-b358-403752d0573c", "NAME_1": "Syddanmark", "NAME_2": "Kerteminde", "DEGURBA_L1": "Rural", "Tot_Pop": 24655.198321667602 }, "geometry": { "type": "Point", "coordinates": [ 10.58563, 55.36044 ] } },
{ "type": "Feature", "properties": { "store_id": "856c06a6-c1b9-47a8-ba85-a8ce13221119", "NAME_1": "Sjælland", "NAME_2": "Holbæk", "DEGURBA_L1": "Rural", "Tot_Pop": 74270.591435328606 }, "geometry": { "type": "Point", "coordinates": [ 11.669626, 55.700735 ] } },
{ "type": "Feature", "properties": { "store_id": "858aa3f6-3baf-47f5-92ca-af3b6fca423a", "NAME_1": "Sjælland", "NAME_2": "Solrød", "DEGURBA_L1": "Urban Cluster", "Tot_Pop": 20721.3091363928 }, "geometry": { "type": "Point", "coordinates": [ 12.2196281, 55.5325916 ] } },
{ "type": "Feature", "properties": { "store_id": "85e8ba7d-7fb2-439c-ba03-d36505d212b5", "NAME_1": "Midtjylland", "NAME_2": "Odder", "DEGURBA_L1": "Rural", "Tot_Pop": 22580.921604110699 }, "geometry": { "type": "Point", "coordinates": [ 10.1499253, 55.9743335 ] } },
{ "type": "Feature", "properties": { "store_id": "85f2209c-9162-4e53-a277-5aa0d92cfe3d", "NAME_1": "Syddanmark", "NAME_2": "Varde", "DEGURBA_L1": "Rural", "Tot_Pop": 52032.89061676 }, "geometry": { "type": "Point", "coordinates": [ 8.494062, 55.61014 ] } },
{ "type": "Feature", "properties": { "store_id": "861b69ce-d460-48b6-b1cf-6ed827f506d7", "NAME_1": "Hovedstaden", "NAME_2": "Lyngby-Taarbæk", "DEGURBA_L1": "Urban Centre", "Tot_Pop": 53995.2580948127 }, "geometry": { "type": "Point", "coordinates": [ 12.52064, 55.77567 ] } },
{ "type": "Feature", "properties": { "store_id": "8621473e-d7bc-4d8f-890d-dc1a8d986854", "NAME_1": "Hovedstaden", "NAME_2": "Furesø", "DEGURBA_L1": "Urban Cluster", "Tot_Pop": 40144.050307430101 }, "geometry": { "type": "Point", "coordinates": [ 12.320795, 55.786946 ] } },
{ "type": "Feature", "properties": { "store_id": "8687eb83-88d0-4e7e-a87d-5d2297ad00ec", "NAME_1": "Hovedstaden", "NAME_2": "Frederiksberg", "DEGURBA_L1": "Urban Centre", "Tot_Pop": 118648.281450514 }, "geometry": { "type": "Point", "coordinates": [ 12.551074, 55.684459 ] } },
{ "type": "Feature", "properties": { "store_id": "8710a1fc-c8cd-4708-8035-667ea7ff5afd", "NAME_1": "Hovedstaden", "NAME_2": "Hillerød", "DEGURBA_L1": "Urban Cluster", "Tot_Pop": 52200.632115126398 }, "geometry": { "type": "Point", "coordinates": [ 12.28198, 55.94132 ] } },
{ "type": "Feature", "properties": { "store_id": "87647462-de62-4e6b-a19d-b7f237ad87dd", "NAME_1": "Midtjylland", "NAME_2": "Viborg", "DEGURBA_L1": "Rural", "Tot_Pop": 99973.806205928806 }, "geometry": { "type": "Point", "coordinates": [ 9.39452, 56.45963 ] } },
{ "type": "Feature", "properties": { "store_id": "88036bbd-d2ce-43c0-a99a-e30914175c08", "NAME_1": "Hovedstaden", "NAME_2": "Hørsholm", "DEGURBA_L1": "Urban Cluster", "Tot_Pop": 24193.974245670299 }, "geometry": { "type": "Point", "coordinates": [ 12.498386, 55.878916 ] } },
{ "type": "Feature", "properties": { "store_id": "89b2c8c4-c794-4ac5-8d53-5410877b82f8", "NAME_1": "Nordjylland", "NAME_2": "Jammerbugt", "DEGURBA_L1": "Rural", "Tot_Pop": 39077.866077676299 }, "geometry": { "type": "Point", "coordinates": [ 9.265622, 57.086718 ] } },
{ "type": "Feature", "properties": { "store_id": "8a16987a-d80f-48b6-9ce1-5e480136ccfd", "NAME_1": "Hovedstaden", "NAME_2": "HøjeTaastrup", "DEGURBA_L1": "Urban Cluster", "Tot_Pop": 52115.0201965671 }, "geometry": { "type": "Point", "coordinates": [ 12.270120853111717, 55.646432355513433 ] } },
{ "type": "Feature", "properties": { "store_id": "8a19cc0e-bcb3-4994-bbe6-aa2d0dc58906", "NAME_1": "Syddanmark", "NAME_2": "Svendborg", "DEGURBA_L1": "Urban Cluster", "Tot_Pop": 59798.355332877501 }, "geometry": { "type": "Point", "coordinates": [ 10.607347, 55.06827 ] } },
{ "type": "Feature", "properties": { "store_id": "8a20030f-db38-4b93-b4af-d40f7b1ee435", "NAME_1": "Hovedstaden", "NAME_2": "Glostrup", "DEGURBA_L1": "Urban Centre", "Tot_Pop": 24229.0085287355 }, "geometry": { "type": "Point", "coordinates": [ 12.378566, 55.663571 ] } },
{ "type": "Feature", "properties": { "store_id": "8a266e34-6a71-4aee-977a-590718fddec3", "NAME_1": "Midtjylland", "NAME_2": "Århus", "DEGURBA_L1": "Urban Centre", "Tot_Pop": 360182.51957037201 }, "geometry": { "type": "Point", "coordinates": [ 10.18965, 56.17074 ] } },
{ "type": "Feature", "properties": { "store_id": "8acb7bbf-3154-404c-9580-b95c8ded3e03", "NAME_1": "Syddanmark", "NAME_2": "Esbjerg", "DEGURBA_L1": "Urban Cluster", "Tot_Pop": 117803.31425356401 }, "geometry": { "type": "Point", "coordinates": [ 8.463831, 55.464082 ] } },
{ "type": "Feature", "properties": { "store_id": "8b27d688-86c0-4f1b-8a09-0e4f5e336062", "NAME_1": "Midtjylland", "NAME_2": "Skanderborg", "DEGURBA_L1": "Urban Cluster", "Tot_Pop": 66487.9296942621 }, "geometry": { "type": "Point", "coordinates": [ 9.903237, 56.154184 ] } },
{ "type": "Feature", "properties": { "store_id": "8b705caa-f879-46b0-b859-485a1611ccab", "NAME_1": "Midtjylland", "NAME_2": "Skanderborg", "DEGURBA_L1": "Urban Cluster", "Tot_Pop": 66487.9296942621 }, "geometry": { "type": "Point", "coordinates": [ 10.0405606, 56.0869629 ] } },
{ "type": "Feature", "properties": { "store_id": "8b7eb697-d505-431f-ad89-835d324cf2e7", "NAME_1": "Hovedstaden", "NAME_2": "Ballerup", "DEGURBA_L1": "Urban Centre", "Tot_Pop": 50078.195329927403 }, "geometry": { "type": "Point", "coordinates": [ 12.345341, 55.726838 ] } },
{ "type": "Feature", "properties": { "store_id": "8b8a3995-0e9b-4625-aaaa-8f185c136157", "NAME_1": "Nordjylland", "NAME_2": "Rebild", "DEGURBA_L1": "Rural", "Tot_Pop": 29490.382945194699 }, "geometry": { "type": "Point", "coordinates": [ 9.8372182, 56.8933557 ] } },
{ "type": "Feature", "properties": { "store_id": "8ce154b7-1e0b-46b6-8053-e256c7693760", "NAME_1": "Syddanmark", "NAME_2": "Fredericia", "DEGURBA_L1": "Urban Cluster", "Tot_Pop": 51984.677546901301 }, "geometry": { "type": "Point", "coordinates": [ 9.7186685, 55.5433795 ] } },
{ "type": "Feature", "properties": { "store_id": "8d5162d7-8bfb-43e0-9aae-fce045e7caf8", "NAME_1": "Sjælland", "NAME_2": "Guldborgsund", "DEGURBA_L1": "Rural", "Tot_Pop": 59595.697996750801 }, "geometry": { "type": "Point", "coordinates": [ 11.868444, 54.762882 ] } },
{ "type": "Feature", "properties": { "store_id": "8daddc4d-1d4b-4f02-972b-ccab39440062", "NAME_1": "Hovedstaden", "NAME_2": "Gladsaxe", "DEGURBA_L1": "Urban Centre", "Tot_Pop": 72843.051801036097 }, "geometry": { "type": "Point", "coordinates": [ 12.481107, 55.747926 ] } },
{ "type": "Feature", "properties": { "store_id": "8e0f56a3-b8a8-435f-bb52-dc9c99211425", "NAME_1": "Syddanmark", "NAME_2": "Sønderborg", "DEGURBA_L1": "Rural", "Tot_Pop": 73647.701219537397 }, "geometry": { "type": "Point", "coordinates": [ 9.896547, 54.954448 ] } },
{ "type": "Feature", "properties": { "store_id": "8e7077fa-5ca2-49c7-a936-b7e7f75dfd0d", "NAME_1": "Hovedstaden", "NAME_2": "København", "DEGURBA_L1": "Urban Centre", "Tot_Pop": 686652.34316011705 }, "geometry": { "type": "Point", "coordinates": [ 12.4834848, 55.7083196 ] } },
{ "type": "Feature", "properties": { "store_id": "8e904fbc-08a3-481f-b7f4-bf0ad073afdd", "NAME_1": "Sjælland", "NAME_2": "Guldborgsund", "DEGURBA_L1": "Rural", "Tot_Pop": 59595.697996750801 }, "geometry": { "type": "Point", "coordinates": [ 11.637882, 54.800936 ] } },
{ "type": "Feature", "properties": { "store_id": "8f2b27ec-8456-402c-bea5-d54a5e5c2033", "NAME_1": "Syddanmark", "NAME_2": "Svendborg", "DEGURBA_L1": "Urban Cluster", "Tot_Pop": 59798.355332877501 }, "geometry": { "type": "Point", "coordinates": [ 10.631351, 55.070292 ] } },
{ "type": "Feature", "properties": { "store_id": "8f4e80ac-36c0-42ca-aa43-a1f6eb7d3a1a", "NAME_1": "Syddanmark", "NAME_2": "Odense", "DEGURBA_L1": "Urban Centre", "Tot_Pop": 215759.764306047 }, "geometry": { "type": "Point", "coordinates": [ 10.366668, 55.397527 ] } },
{ "type": "Feature", "properties": { "store_id": "8f7f38bf-8e17-4f56-93f2-269c256e93b4", "NAME_1": "Hovedstaden", "NAME_2": "Egedal", "DEGURBA_L1": "Urban Cluster", "Tot_Pop": 47461.702593235503 }, "geometry": { "type": "Point", "coordinates": [ 12.287367, 55.730898 ] } },
{ "type": "Feature", "properties": { "store_id": "902d3fe7-c4f5-460e-b4de-b232b230c789", "NAME_1": "Syddanmark", "NAME_2": "Odense", "DEGURBA_L1": "Urban Centre", "Tot_Pop": 215759.764306047 }, "geometry": { "type": "Point", "coordinates": [ 10.454611, 55.425133 ] } },
{ "type": "Feature", "properties": { "store_id": "905a219d-0e22-4818-916d-06fd5fc38999", "NAME_1": "Sjælland", "NAME_2": "Solrød", "DEGURBA_L1": "Urban Cluster", "Tot_Pop": 20721.3091363928 }, "geometry": { "type": "Point", "coordinates": [ 12.114171, 55.543806 ] } },
{ "type": "Feature", "properties": { "store_id": "90dca4a0-2fe2-4c8d-a78a-b208580e03eb", "NAME_1": "Midtjylland", "NAME_2": "Århus", "DEGURBA_L1": "Urban Centre", "Tot_Pop": 360182.51957037201 }, "geometry": { "type": "Point", "coordinates": [ 10.128705, 56.094941 ] } },
{ "type": "Feature", "properties": { "store_id": "90fbc97f-35a8-4a24-a88f-a25451cf736b", "NAME_1": "Hovedstaden", "NAME_2": "København", "DEGURBA_L1": "Urban Centre", "Tot_Pop": 686652.34316011705 }, "geometry": { "type": "Point", "coordinates": [ 12.552839, 55.699948 ] } },
{ "type": "Feature", "properties": { "store_id": "910841d7-8561-493c-a10e-6e2eae31f60a", "NAME_1": "Hovedstaden", "NAME_2": "Frederiksberg", "DEGURBA_L1": "Urban Centre", "Tot_Pop": 118648.281450514 }, "geometry": { "type": "Point", "coordinates": [ 12.5364407, 55.6859238 ] } },
{ "type": "Feature", "properties": { "store_id": "911233e8-a2b7-4115-9413-6e7f0530e21f", "NAME_1": "Hovedstaden", "NAME_2": "Egedal", "DEGURBA_L1": "Urban Cluster", "Tot_Pop": 47461.702593235503 }, "geometry": { "type": "Point", "coordinates": [ 12.233839, 55.757543 ] } },
{ "type": "Feature", "properties": { "store_id": "92dfabc5-2fe3-4d6d-aea4-1cfd90d671cb", "NAME_1": "Hovedstaden", "NAME_2": "København", "DEGURBA_L1": "Urban Centre", "Tot_Pop": 686652.34316011705 }, "geometry": { "type": "Point", "coordinates": [ 12.583599, 55.68313 ] } },
{ "type": "Feature", "properties": { "store_id": "92fea766-a547-429d-bd67-1b74dcc0ef76", "NAME_1": "Hovedstaden", "NAME_2": "Gladsaxe", "DEGURBA_L1": "Urban Centre", "Tot_Pop": 72843.051801036097 }, "geometry": { "type": "Point", "coordinates": [ 12.4382071, 55.7567506 ] } },
{ "type": "Feature", "properties": { "store_id": "93314bfc-8ab5-4763-873f-e32f34d85af2", "NAME_1": "Syddanmark", "NAME_2": "Vejen", "DEGURBA_L1": "Rural", "Tot_Pop": 46718.721771667202 }, "geometry": { "type": "Point", "coordinates": [ 9.0183468, 55.4810678 ] } },
{ "type": "Feature", "properties": { "store_id": "936003b3-87fc-4024-8026-1a540b129117", "NAME_1": "Midtjylland", "NAME_2": "Horsens", "DEGURBA_L1": "Urban Cluster", "Tot_Pop": 87073.5036454441 }, "geometry": { "type": "Point", "coordinates": [ 9.749167, 55.969151 ] } },
{ "type": "Feature", "properties": { "store_id": "93834b88-5a37-48b5-b4ac-a02d958ddf46", "NAME_1": "Sjælland", "NAME_2": "Næstved", "DEGURBA_L1": "Urban Cluster", "Tot_Pop": 85502.469069857703 }, "geometry": { "type": "Point", "coordinates": [ 11.649075, 55.180544 ] } },
{ "type": "Feature", "properties": { "store_id": "93a6ac26-1f73-49d1-9b22-89a72b340820", "NAME_1": "Midtjylland", "NAME_2": "Lemvig", "DEGURBA_L1": "Rural", "Tot_Pop": 19498.8840573212 }, "geometry": { "type": "Point", "coordinates": [ 8.3109587, 56.5512554 ] } },
{ "type": "Feature", "properties": { "store_id": "93c8355f-f760-4215-a5ac-87ab2e595e72", "NAME_1": "Hovedstaden", "NAME_2": "Tårnby", "DEGURBA_L1": "Urban Centre", "Tot_Pop": 42869.132494344703 }, "geometry": { "type": "Point", "coordinates": [ 12.6576414, 55.6311469 ] } },
{ "type": "Feature", "properties": { "store_id": "9408acbd-cb40-4141-af6f-d7251c081295", "NAME_1": "Sjælland", "NAME_2": "Slagelse", "DEGURBA_L1": "Urban Cluster", "Tot_Pop": 78286.817517303105 }, "geometry": { "type": "Point", "coordinates": [ 11.2628, 55.362402 ] } },
{ "type": "Feature", "properties": { "store_id": "940943d4-393a-4aba-b931-5a5dadc319fe", "NAME_1": "Hovedstaden", "NAME_2": "Hørsholm", "DEGURBA_L1": "Urban Cluster", "Tot_Pop": 24193.974245670299 }, "geometry": { "type": "Point", "coordinates": [ 12.5043209, 55.891019 ] } },
{ "type": "Feature", "properties": { "store_id": "942ffe1e-49f0-4e77-a28c-6bfa061fb80b", "NAME_1": "Midtjylland", "NAME_2": "Århus", "DEGURBA_L1": "Urban Centre", "Tot_Pop": 360182.51957037201 }, "geometry": { "type": "Point", "coordinates": [ 10.1818038, 56.1199938 ] } },
{ "type": "Feature", "properties": { "store_id": "954bc3c8-06a7-47e1-9409-19be9d80e045", "NAME_1": "Sjælland", "NAME_2": "Næstved", "DEGURBA_L1": "Urban Cluster", "Tot_Pop": 85502.469069857703 }, "geometry": { "type": "Point", "coordinates": [ 11.753716, 55.228308 ] } },
{ "type": "Feature", "properties": { "store_id": "95c7972a-f2ee-43d7-bab1-d3427012abbc", "NAME_1": "Sjælland", "NAME_2": "Lejre", "DEGURBA_L1": "Rural", "Tot_Pop": 28541.726621084599 }, "geometry": { "type": "Point", "coordinates": [ 11.952923, 55.555487 ] } },
{ "type": "Feature", "properties": { "store_id": "963defde-51f0-4374-b645-2b6d99ccf316", "NAME_1": "Hovedstaden", "NAME_2": "Gribskov", "DEGURBA_L1": "Urban Cluster", "Tot_Pop": 41132.751618633498 }, "geometry": { "type": "Point", "coordinates": [ 12.3014139, 56.1259789 ] } },
{ "type": "Feature", "properties": { "store_id": "96420a8f-6a70-4206-9e5e-a7b27716ac1c", "NAME_1": "Hovedstaden", "NAME_2": "Gentofte", "DEGURBA_L1": "Urban Centre", "Tot_Pop": 80901.086500708203 }, "geometry": { "type": "Point", "coordinates": [ 12.5781617, 55.7258485 ] } },
{ "type": "Feature", "properties": { "store_id": "968c4f55-7b56-4a20-ac08-d6be9706985a", "NAME_1": "Sjælland", "NAME_2": "Køge", "DEGURBA_L1": "Urban Cluster", "Tot_Pop": 59718.488650037398 }, "geometry": { "type": "Point", "coordinates": [ 12.17989, 55.455377 ] } },
{ "type": "Feature", "properties": { "store_id": "97448272-ace1-47e5-ab9a-08298cedc415", "NAME_1": "Midtjylland", "NAME_2": "Viborg", "DEGURBA_L1": "Rural", "Tot_Pop": 99973.806205928806 }, "geometry": { "type": "Point", "coordinates": [ 9.434355, 56.449043 ] } },
{ "type": "Feature", "properties": { "store_id": "977c7f98-22e0-4b83-8c0c-7d632dec8c0d", "NAME_1": "Syddanmark", "NAME_2": "Tønder", "DEGURBA_L1": "Rural", "Tot_Pop": 37069.290942309803 }, "geometry": { "type": "Point", "coordinates": [ 8.8554283, 54.9398188 ] } },
{ "type": "Feature", "properties": { "store_id": "97df1790-97f6-4903-9866-6e420fb4942c", "NAME_1": "Nordjylland", "NAME_2": "Aalborg", "DEGURBA_L1": "Urban Cluster", "Tot_Pop": 211021.679502101 }, "geometry": { "type": "Point", "coordinates": [ 9.9238885, 57.0452699 ] } },
{ "type": "Feature", "properties": { "store_id": "9810f2da-f4d3-4282-9e97-a723247aa828", "NAME_1": "Nordjylland", "NAME_2": "Aalborg", "DEGURBA_L1": "Urban Cluster", "Tot_Pop": 211021.679502101 }, "geometry": { "type": "Point", "coordinates": [ 10.028081, 57.104305 ] } },
{ "type": "Feature", "properties": { "store_id": "9850d4e7-33ff-43a3-b9ed-9c95479e8570", "NAME_1": "Nordjylland", "NAME_2": "Frederikshavn", "DEGURBA_L1": "Urban Cluster", "Tot_Pop": 57099.405619373203 }, "geometry": { "type": "Point", "coordinates": [ 10.522719, 57.417052 ] } },
{ "type": "Feature", "properties": { "store_id": "99f54e32-0e39-4259-8fdd-fa9b6d24997d", "NAME_1": "Syddanmark", "NAME_2": "Esbjerg", "DEGURBA_L1": "Urban Cluster", "Tot_Pop": 117803.31425356401 }, "geometry": { "type": "Point", "coordinates": [ 8.781819, 55.351733 ] } },
{ "type": "Feature", "properties": { "store_id": "9a6b138c-36cc-469d-93da-c146cd8a5cbf", "NAME_1": "Hovedstaden", "NAME_2": "København", "DEGURBA_L1": "Urban Centre", "Tot_Pop": 686652.34316011705 }, "geometry": { "type": "Point", "coordinates": [ 12.5771287, 55.7041183 ] } },
{ "type": "Feature", "properties": { "store_id": "9a927c93-4791-49c7-8bf9-54e72568f9a6", "NAME_1": "Hovedstaden", "NAME_2": "Allerød", "DEGURBA_L1": "Urban Cluster", "Tot_Pop": 26097.241255347799 }, "geometry": { "type": "Point", "coordinates": [ 12.2776029, 55.837617 ] } },
{ "type": "Feature", "properties": { "store_id": "9b52fe32-12ad-49b6-af0a-d75cfeceeca6", "NAME_1": "Midtjylland", "NAME_2": "Odder", "DEGURBA_L1": "Rural", "Tot_Pop": 22580.921604110699 }, "geometry": { "type": "Point", "coordinates": [ 10.134481, 55.978959 ] } },
{ "type": "Feature", "properties": { "store_id": "9be76475-723b-42f6-a469-eedcf7973199", "NAME_1": "Syddanmark", "NAME_2": "Esbjerg", "DEGURBA_L1": "Urban Cluster", "Tot_Pop": 117803.31425356401 }, "geometry": { "type": "Point", "coordinates": [ 8.36379, 55.53465 ] } },
{ "type": "Feature", "properties": { "store_id": "9d056cf1-484f-465c-9017-c1bfc32a7b6d", "NAME_1": "Syddanmark", "NAME_2": "Haderslev", "DEGURBA_L1": "Rural", "Tot_Pop": 55871.994601730701 }, "geometry": { "type": "Point", "coordinates": [ 9.480007, 55.239089 ] } },
{ "type": "Feature", "properties": { "store_id": "9d13c9cb-4d85-4fe5-97d5-394896560dfc", "NAME_1": "Syddanmark", "NAME_2": "Odense", "DEGURBA_L1": "Urban Centre", "Tot_Pop": 215759.764306047 }, "geometry": { "type": "Point", "coordinates": [ 10.420357, 55.393413 ] } },
{ "type": "Feature", "properties": { "store_id": "9d3a54a2-b3c7-429a-b2f5-a286183dfe54", "NAME_1": "Hovedstaden", "NAME_2": "Rudersdal", "DEGURBA_L1": "Urban Cluster", "Tot_Pop": 55795.335356919997 }, "geometry": { "type": "Point", "coordinates": [ 12.545079, 55.840046 ] } },
{ "type": "Feature", "properties": { "store_id": "9d6bed8f-207c-4c8d-bba2-ce11b913e624", "NAME_1": "Sjælland", "NAME_2": "Ringsted", "DEGURBA_L1": "Urban Cluster", "Tot_Pop": 37825.699078452897 }, "geometry": { "type": "Point", "coordinates": [ 11.797412, 55.459409 ] } },
{ "type": "Feature", "properties": { "store_id": "9dfa16c2-dd08-42b8-9d0c-13608b3ca666", "NAME_1": "Syddanmark", "NAME_2": "Esbjerg", "DEGURBA_L1": "Urban Cluster", "Tot_Pop": 117803.31425356401 }, "geometry": { "type": "Point", "coordinates": [ 8.687965, 55.466711 ] } },
{ "type": "Feature", "properties": { "store_id": "9e4ab9b7-c816-4251-a1ae-76a2c2fe5c19", "NAME_1": "Hovedstaden", "NAME_2": "København", "DEGURBA_L1": "Urban Centre", "Tot_Pop": 686652.34316011705 }, "geometry": { "type": "Point", "coordinates": [ 12.5460008, 55.6962991 ] } },
{ "type": "Feature", "properties": { "store_id": "9f5bd205-3118-4d06-800d-cfe65e88dbda", "NAME_1": "Midtjylland", "NAME_2": "Horsens", "DEGURBA_L1": "Urban Cluster", "Tot_Pop": 87073.5036454441 }, "geometry": { "type": "Point", "coordinates": [ 9.84143, 55.869914 ] } },
{ "type": "Feature", "properties": { "store_id": "9f7a4856-1a13-45fd-906f-a324b9fe25b6", "NAME_1": "Hovedstaden", "NAME_2": "Herlev", "DEGURBA_L1": "Urban Centre", "Tot_Pop": 25315.340440286302 }, "geometry": { "type": "Point", "coordinates": [ 12.423635, 55.742601 ] } },
{ "type": "Feature", "properties": { "store_id": "9fe5e73e-dc8b-4a0f-9e6c-d7e921f46e3a", "NAME_1": "Hovedstaden", "NAME_2": "Frederiksberg", "DEGURBA_L1": "Urban Centre", "Tot_Pop": 118648.281450514 }, "geometry": { "type": "Point", "coordinates": [ 12.5071999, 55.671727 ] } },
{ "type": "Feature", "properties": { "store_id": "9fef99c9-5690-4384-a15b-f1987c7559d5", "NAME_1": "Nordjylland", "NAME_2": "Aalborg", "DEGURBA_L1": "Urban Cluster", "Tot_Pop": 211021.679502101 }, "geometry": { "type": "Point", "coordinates": [ 9.9629, 57.12789 ] } },
{ "type": "Feature", "properties": { "store_id": "a0ec7a09-c39a-44b9-b1ad-09b37cab818b", "NAME_1": "Hovedstaden", "NAME_2": "Halsnæs", "DEGURBA_L1": "Urban Cluster", "Tot_Pop": 31269.653585613902 }, "geometry": { "type": "Point", "coordinates": [ 11.8512531, 55.9621505 ] } },
{ "type": "Feature", "properties": { "store_id": "a1921fbe-f895-4f7e-874c-3f4673c29036", "NAME_1": "Syddanmark", "NAME_2": "Nordfyns", "DEGURBA_L1": "Rural", "Tot_Pop": 31059.328393342199 }, "geometry": { "type": "Point", "coordinates": [ 10.400793, 55.509975 ] } },
{ "type": "Feature", "properties": { "store_id": "a1deb3ab-828d-4995-9d1f-06317e239fc9", "NAME_1": "Syddanmark", "NAME_2": "Kerteminde", "DEGURBA_L1": "Rural", "Tot_Pop": 24655.198321667602 }, "geometry": { "type": "Point", "coordinates": [ 10.557072, 55.460062 ] } },
{ "type": "Feature", "properties": { "store_id": "a2ae41ba-f16d-45d6-a424-70b34c2ceb92", "NAME_1": "Syddanmark", "NAME_2": "Sønderborg", "DEGURBA_L1": "Rural", "Tot_Pop": 73647.701219537397 }, "geometry": { "type": "Point", "coordinates": [ 9.810575, 54.921994 ] } },
{ "type": "Feature", "properties": { "store_id": "a3a67c23-1790-401b-9a80-31f02fd9aad5", "NAME_1": "Hovedstaden", "NAME_2": "København", "DEGURBA_L1": "Urban Centre", "Tot_Pop": 686652.34316011705 }, "geometry": { "type": "Point", "coordinates": [ 12.51398, 55.660804 ] } },
{ "type": "Feature", "properties": { "store_id": "a431c9ff-1393-4b2f-84fd-0a849c8f0533", "NAME_1": "Hovedstaden", "NAME_2": "Frederiksberg", "DEGURBA_L1": "Urban Centre", "Tot_Pop": 118648.281450514 }, "geometry": { "type": "Point", "coordinates": [ 12.533126, 55.678764 ] } },
{ "type": "Feature", "properties": { "store_id": "a4a5d7f7-462d-4233-a43c-b3927c6e322a", "NAME_1": "Sjælland", "NAME_2": "Kalundborg", "DEGURBA_L1": "Rural", "Tot_Pop": 47752.588766562898 }, "geometry": { "type": "Point", "coordinates": [ 11.095803, 55.678143 ] } },
{ "type": "Feature", "properties": { "store_id": "a53f07db-90b0-4816-912a-2779cf29c811", "NAME_1": "Midtjylland", "NAME_2": "Århus", "DEGURBA_L1": "Urban Centre", "Tot_Pop": 360182.51957037201 }, "geometry": { "type": "Point", "coordinates": [ 10.289157, 56.223503 ] } },